{"type":"FeatureCollection","features":[{"type":"Feature","properties":{"id":"1","categories":["PROJEKTRAUM/PROJEKTINITIATIVE"],"name":"7hours HAUS 19 arts & concerts","address":"Reinhardtstr. 18-20","plz":"10117","city":"Berlin","website":"http://www.7hours.com/"},"geometry":{"type":"Point","coordinates":[13.3847587,52.5235492]}},{"type":"Feature","properties":{"id":"2","categories":["PROJEKTRAUM/PROJEKTINITIATIVE"],"name":"A TRANS","address":"Baerwaldstr. 49","plz":"10961","city":"Berlin","website":"www.atrans.org"},"geometry":{"type":"Point","coordinates":[13.4018401,52.4911318]}},{"type":"Feature","properties":{"id":"3","categories":["BÜHNEN","THEATER"],"name":"Acker Stadt Palast - Freie Bühne Mitte e.V.","address":"Ackerstr. 169/170","plz":"10115","city":"Berlin","website":"www.ackerstadtpalast.de"},"geometry":{"type":"Point","coordinates":[13.39659,52.52974]}},{"type":"Feature","properties":{"id":"4","categories":["KUNST-/KULTURHÄUSER","KULTURVEREINE"],"name":"ACUD Gallery, Studio, Club","address":"Veteranenstraße 21D","plz":"10119","city":"Berlin","website":"www.acudmachtneu.de"},"geometry":{"type":"Point","coordinates":[13.4009334,52.533432]}},{"type":"Feature","properties":{"id":"5","categories":["TANZ / PERFORMANCE"],"name":"ada Studio & Bühne für zeitgenössischen Tanz","address":"Uferstraße 23","plz":"13357","city":"Berlin","website":"http://www.ada-studio.de/"},"geometry":{"type":"Point","coordinates":[13.3748991,52.5518019]}},{"type":"Feature","properties":{"id":"6","categories":["BIBLIOTHEK"],"name":"Adolf-Reichwein-Bibliothek","address":"Berkaer Platz 1","plz":"14199","city":"Berlin","website":"https://www.wir-bieten-vielfalt-einen-ort.de/adolf-reichwein-bibliothek/"},"geometry":{"type":"Point","coordinates":[13.28801,52.4777]}},{"type":"Feature","properties":{"id":"7","categories":["BÜHNEN UND THEATER","ARCHIVE UND BIBLIOTHEKEN","LITERATUR","BILDENDE KUNST","DARSTELLENDE KUNST","TANZ / PERFORMANCE"],"name":"AFROTAK TV cyberNomads - The Black German Academia Art Media Culture Archive since 2001","address":"Auguststrasse 10","plz":"10117","city":"Berlin","website":"https://afrotak.com/"},"geometry":{"type":"Point","coordinates":[13.39412,52.52644]}},{"type":"Feature","properties":{"id":"8","categories":["BILDENDE KUNST"],"name":"after the butcher","address":"Spittastr.25","plz":"10317","city":"Berlin","website":"www.after-the-butcher.de"},"geometry":{"type":"Point","coordinates":[13.47896,52.50406]}},{"type":"Feature","properties":{"id":"9","categories":["ARCHIVE UND BIBLIOTHEKEN","BILDENDE KUNST"],"name":"AiR Berlin Alexanderplatz","address":"Schönebergerstraße 13","plz":"10963","city":"Berlin","website":"http://airberlinalexanderplatz.de/de/"},"geometry":{"type":"Point","coordinates":[13.3302153,52.4643893]}},{"type":"Feature","properties":{"id":"10","categories":["KUNST-/KULTURHÄUSER","KULTURVEREINE"],"name":"Aktives Museum","address":"Stauffenbergstraße 13-14","plz":"10785","city":"Berlin","website":"https://www.aktives-museum.de"},"geometry":{"type":"Point","coordinates":[13.36306,52.50768]}},{"type":"Feature","properties":{"id":"11","categories":["PROJEKTRAUM/PROJEKTINITIATIVE"],"name":"alpha nova-kulturwerkstatt & galerie futura","address":"Am Flutgraben 3","plz":"12435","city":"Berlin","website":"www.alpha-nova-kulturwerkstatt.de"},"geometry":{"type":"Point","coordinates":[13.4516979,52.4970977]}},{"type":"Feature","properties":{"id":"12","categories":["LITERATUR","BILDENDE KUNST","MUSIK","SONSTIGES"],"name":"Alte Dorfschule Rudow e.V.","address":"Alt Rudow 60","plz":"12355","city":"Berlin","website":"http://alte.dorfschule-rudow.de/"},"geometry":{"type":"Point","coordinates":[13.4954824,52.4175979]}},{"type":"Feature","properties":{"id":"13","categories":["KUNST-/KULTURHÄUSER","KULTURVEREINE"],"name":"Alte Möbelfabrik","address":"Karlstr. 12","plz":"12555","city":"Berlin","website":"http://alte-moebelfabrik.de/"},"geometry":{"type":"Point","coordinates":[10.1530523,48.680019]}},{"type":"Feature","properties":{"id":"14","categories":["PROJEKTRAUM/PROJEKTINITIATIVE"],"name":"altes Projekt: ADN Pförtnerhaus, Statsion und TACHO; neu: CNTRM","address":"Straße der Pariser Kommune; Franz-Mehring-Platz","plz":"10243","city":"Berlin","website":"christofzwiener.de"},"geometry":{"type":"Point","coordinates":[13.4397162,52.5139565]}},{"type":"Feature","properties":{"id":"15","categories":["BIBLIOTHEK"],"name":"Amerika-Gedenkbibliothek","address":"Blücherplatz 1","plz":"10961","city":"Berlin","website":"https://www.zlb.de"},"geometry":{"type":"Point","coordinates":[13.3903134,52.4963116]}},{"type":"Feature","properties":{"id":"16","categories":["BÜHNEN","THEATER"],"name":"andcompany & Co","address":"Mariannenplatz 2","plz":"10997","city":"Berlin","website":"http://www.andco.de/"},"geometry":{"type":"Point","coordinates":[13.4240746,52.5038945]}},{"type":"Feature","properties":{"id":"17","categories":["BIBLIOTHEK"],"name":"Anna-Seghers-Bibliothek","address":"Prerower Platz 2","plz":"13051","city":"Berlin","website":"https://www.berlin.de/ba-lichtenberg/auf-einen-blick/buergerservice/bildung/artikel.298017.php"},"geometry":{"type":"Point","coordinates":[13.5061303,52.5650537]}},{"type":"Feature","properties":{"id":"18","categories":["BIBLIOTHEK"],"name":"Anton-Saefkow-Bibliothek","address":"Anton-Saefkow-Platz 14","plz":"10369","city":"Berlin","website":"https://www.berlin.de/ba-lichtenberg/auf-einen-blick/buergerservice/bildung/artikel.298020.php"},"geometry":{"type":"Point","coordinates":[13.4709696,52.5306033]}},{"type":"Feature","properties":{"id":"19","categories":["PROJEKTRAUM/PROJEKTINITIATIVE"],"name":"Apartment Project Berlin","address":"Hertzbergstr. 13","plz":"12055","city":"Berlin","website":"berlin.apartmentproject.org"},"geometry":{"type":"Point","coordinates":[13.4480445,52.4770176]}},{"type":"Feature","properties":{"id":"20","categories":["KUNSTGALERIEN","AUSSTELLUNGSRÄUME"],"name":"Arbeitskreis Kommunale Galerien Berlin (KGB), c/o Kunstverein Tiergarten e.V.","address":"Turmstraße 75","plz":"10551","city":"Berlin","website":"http://kgberlin.net/"},"geometry":{"type":"Point","coordinates":[13.333852,52.5266505]}},{"type":"Feature","properties":{"id":"21","categories":["BAUDENKMÄLER","SCHLÖSSER","GÄRTEN"],"name":"Archäologischer Keller","address":"Reformationsplatz 3-4","plz":"13597","city":"Berlin","website":"http://www.kulturfuehrer-berlin.de/index.php?hk=11&uk=45&b=0&pid=2183&e=4"},"geometry":{"type":"Point","coordinates":[13.2051341,52.5379498]}},{"type":"Feature","properties":{"id":"22","categories":["PROJEKTRAUM/PROJEKTINITIATIVE"],"name":"Art Laboratory Berlin","address":"Prinzenallee 34","plz":"13359","city":"Berlin","website":"www.artlaboratory-berlin.org"},"geometry":{"type":"Point","coordinates":[13.386037,52.5580132]}},{"type":"Feature","properties":{"id":"23","categories":["PROJEKTRAUM/PROJEKTINITIATIVE"],"name":"art.endart","address":"Drontheimer Str. 22/23","plz":"13359","city":"Berlin","website":"www.koloniewedding.de/artendart"},"geometry":{"type":"Point","coordinates":[13.37659,52.56023]}},{"type":"Feature","properties":{"id":"24","categories":["PROJEKTRAUM/PROJEKTINITIATIVE"],"name":"ARTITUDE e.V.","address":"Cuvrystraße 3-4","plz":"10997","city":"Berlin","website":"www.artitu.de"},"geometry":{"type":"Point","coordinates":[13.4458798,52.4999627]}},{"type":"Feature","properties":{"id":"25","categories":["KUNSTGALERIEN","AUSSTELLUNGSRÄUME"],"name":"Artothek","address":"Hohenzollerndamm 176","plz":"10713","city":"Berlin","website":"https://www.villa-oppenheim-berlin.de/"},"geometry":{"type":"Point","coordinates":[13.3118077,52.4894393]}},{"type":"Feature","properties":{"id":"26","categories":["BÜHNEN","THEATER"],"name":"Astrid-Lindgren-Bühne im Fez","address":"Straße zum FEZ 2","plz":"12459","city":"Berlin","website":"https://astrid-lindgren-buehne.fez-berlin.de/"},"geometry":{"type":"Point","coordinates":[13.5490931,52.4612165]}},{"type":"Feature","properties":{"id":"27","categories":["KUNSTGALERIEN","AUSSTELLUNGSRÄUME"],"name":"Atelierhof Kreuzberg","address":"Schleiermacherstr. 31-37","plz":"10961","city":"Berlin","website":"http://www.atelierhof-kreuzberg.com/"},"geometry":{"type":"Point","coordinates":[13.399023,52.492551]}},{"type":"Feature","properties":{"id":"28","categories":["BÜHNEN","THEATER"],"name":"ATZE Musiktheater","address":"Luxemburger Str. 20","plz":"13353","city":"Berlin","website":"http://www.atzeberlin.de"},"geometry":{"type":"Point","coordinates":[13.35193,52.54263]}},{"type":"Feature","properties":{"id":"29","categories":["BÜHNEN","THEATER"],"name":"aufBruch - KUNST GEFÄNGNIS STADT","address":"Pappelallee 7","plz":"10437","city":"Berlin","website":"https://www.gefaengnistheater.de/#"},"geometry":{"type":"Point","coordinates":[13.4138776,52.5422153]}},{"type":"Feature","properties":{"id":"30","categories":["BÜHNEN","THEATER"],"name":"AUSLAND - Territory for arts and collateral damage","address":"Lychener Str. 60","plz":"10437","city":"Berlin","website":"https://ausland-berlin.de/"},"geometry":{"type":"Point","coordinates":[13.4197262,52.5448412]}},{"type":"Feature","properties":{"id":"31","categories":["KUNSTGALERIEN","AUSSTELLUNGSRÄUME"],"name":"Ausstellungszentrum Pyramide","address":"Riesaer Str. 94","plz":"12627","city":"Berlin","website":"http://www.kultur-marzahn-hellersdorf.de/AUSSTELLUNGSZENTRUM-PY.12.0.html"},"geometry":{"type":"Point","coordinates":[13.6154831,52.5310817]}},{"type":"Feature","properties":{"id":"32","categories":["KUNSTGALERIEN","AUSSTELLUNGSRÄUME"],"name":"Axel Obiger","address":"Brunnenstraße 29","plz":"10119","city":"Berlin","website":"www.axelobiger.com"},"geometry":{"type":"Point","coordinates":[13.3986033,52.534476]}},{"type":"Feature","properties":{"id":"33","categories":["BÜHNEN","THEATER"],"name":"Ballhaus Naunynstraße","address":"Naunynstr. 27","plz":"10997","city":"Berlin","website":"http://www.ballhausnaunynstrasse.de/"},"geometry":{"type":"Point","coordinates":[13.4212979,52.5020343]}},{"type":"Feature","properties":{"id":"34","categories":["BÜHNEN","THEATER"],"name":"Ballhaus Ost","address":"Pappelallee 15","plz":"10437","city":"Berlin","website":"https://www.ballhausost.de/"},"geometry":{"type":"Point","coordinates":[13.4148661,52.5430652]}},{"type":"Feature","properties":{"id":"35","categories":["BAUDENKMÄLER","SCHLÖSSER","GÄRTEN"],"name":"Baudenkmal","address":"Schustehrusstraße 13","plz":"14059","city":"Berlin","website":"https://www.villa-oppenheim-berlin.de/museum/baudenkmaeler/schustehrusstrasse-13.html"},"geometry":{"type":"Point","coordinates":[13.3038398,52.5172241]}},{"type":"Feature","properties":{"id":"36","categories":["PROJEKTRAUM/PROJEKTINITIATIVE"],"name":"BcmArte","address":"Manteuffelstr. 24","plz":"10997","city":"Berlin","website":"www.berlinconmuchoarte.com"},"geometry":{"type":"Point","coordinates":[13.3755654,52.4587838]}},{"type":"Feature","properties":{"id":"37","categories":["PROJEKTRAUM/PROJEKTINITIATIVE"],"name":"Bel Etage","address":"","plz":"","city":"Berlin","website":"bel-etage-projects.com"},"geometry":{"type":"Point","coordinates":[0,0]}},{"type":"Feature","properties":{"id":"38","categories":["BILDENDE KUNST","TANZ / PERFORMANCE"],"name":"Berlin con mucho Arte (BcmA)","address":"Manteuffelstr., 42","plz":"10997","city":"Berlin","website":"http://www.berlinconmuchoarte.com/"},"geometry":{"type":"Point","coordinates":[13.3764109,52.458312]}},{"type":"Feature","properties":{"id":"39","categories":["ARCHIVE UND BIBLIOTHEKEN","LITERATUR"],"name":"Berliner Blindenhörbücherei gGmbH","address":"Auerbachstraße 7","plz":"14193","city":"Berlin","website":"http://bhb.absv.de/"},"geometry":{"type":"Point","coordinates":[13.2620591,52.4864291]}},{"type":"Feature","properties":{"id":"40","categories":["BÜHNEN","THEATER"],"name":"Berliner Ensemble","address":"Bertolt-Brecht-Platz 1","plz":"10117","city":"Berlin","website":"https://www.berliner-ensemble.de"},"geometry":{"type":"Point","coordinates":[13.3851929,52.5222176]}},{"type":"Feature","properties":{"id":"41","categories":["SONSTIGES"],"name":"Berliner Festspiele","address":"Schaperstraße 24","plz":"10719","city":"Berlin","website":"https://www.berlinerfestspiele.de"},"geometry":{"type":"Point","coordinates":[13.3286464,52.4984457]}},{"type":"Feature","properties":{"id":"42","categories":["LITERATUR","BILDENDE KUNST","MUSIK","SONSTIGES"],"name":"Berliner Künstlerprogramm des DAAD","address":"Makrgrafenstraße 37","plz":"10117","city":"Berlin","website":"http://www.berliner-kuenstlerprogramm.de/"},"geometry":{"type":"Point","coordinates":[13.3934685,52.5134042]}},{"type":"Feature","properties":{"id":"43","categories":["BIBLIOTHEK"],"name":"Berliner Stadtbibliothek","address":"Breite Straße 30 – 36","plz":"10178","city":"Berlin","website":"https://www.zlb.de"},"geometry":{"type":"Point","coordinates":[13.40446,52.51534]}},{"type":"Feature","properties":{"id":"45","categories":["MUSEUM"],"name":"Berlinische Galerie, Landesmuseum für Moderne Kunst, Fotografie und Architektur","address":"Akte Jakobstr. 124-128","plz":"10969","city":"Berlin","website":"https://www.berlinischegalerie.de/home/"},"geometry":{"type":"Point","coordinates":[13.3986995,52.5037618]}},{"type":"Feature","properties":{"id":"46","categories":["PROJEKTRAUM/PROJEKTINITIATIVE"],"name":"Berlin-Weekly","address":"Linienstr. 160","plz":"10115","city":"Berlin","website":"berlin-weekly.com"},"geometry":{"type":"Point","coordinates":[13.3949749,52.5278498]}},{"type":"Feature","properties":{"id":"47","categories":["KUNSTGALERIEN","AUSSTELLUNGSRÄUME"],"name":"Bernhard-Heiliger-Stiftung","address":"Käuzchensteig 8","plz":"14195","city":"Berlin","website":"https://bernhard-heiliger-stiftung.de/"},"geometry":{"type":"Point","coordinates":[13.27435,52.4663]}},{"type":"Feature","properties":{"id":"48","categories":["BIBLIOTHEK"],"name":"Bettina-von-Arnim-Bibliothek","address":"Schönhauser Allee 75","plz":"10439","city":"Berlin","website":"https://www.berlin.de/stadtbibliothek-pankow/bibliotheken/bettina-von-arnim-bibliothek/"},"geometry":{"type":"Point","coordinates":[13.4141009,52.549214]}},{"type":"Feature","properties":{"id":"49","categories":["MUSEUM"],"name":"Bezirksmuseum/ Haus 1","address":"Alt-Marzahn 51 / 55","plz":"12685","city":"Berlin","website":"http://www.kultur-marzahn-hellersdorf.de/BEZIRKSMUSEUM-MARZAHN.11.0.html"},"geometry":{"type":"Point","coordinates":[13.5609464,52.5431362]}},{"type":"Feature","properties":{"id":"50","categories":["BIBLIOTHEK"],"name":"Bezirkszentralbibliothek","address":"Carl-Schurz-Straße 13","plz":"13597","city":"Berlin","website":"https://www.berlin.de/stadtbibliothek-spandau/bibliotheken/bezirkszentralbibliothek/"},"geometry":{"type":"Point","coordinates":[13.2013573,52.5361344]}},{"type":"Feature","properties":{"id":"51","categories":["BIBLIOTHEK"],"name":"Bezirkszentralbibliothek Mark Twain","address":"Marzahner Promenade 52 – 54","plz":"12679","city":"Berlin","website":"https://www.berlin.de/bibliotheken-mh/bibliotheken/bezirkszentralbibliothek-mark-twain/"},"geometry":{"type":"Point","coordinates":[13.5554319,52.5472261]}},{"type":"Feature","properties":{"id":"52","categories":["BIBLIOTHEK"],"name":"Bezirkszentralbibliothek Philipp Schaeffer","address":"Brunnenstraße 181","plz":"10119","city":"Berlin","website":"https://www.berlin.de/stadtbibliothek-mitte/bibliotheken/bezirkszentralbibliothek-philipp-schaeffer/"},"geometry":{"type":"Point","coordinates":[13.3992672,52.5316435]}},{"type":"Feature","properties":{"id":"53","categories":["LITERATUR","BILDENDE KUNST","MUSIK","SONSTIGES"],"name":"bi’bak e.V.","address":"Prinzenallee 59","plz":"13359","city":"Berlin","website":"www.bi-bak.de"},"geometry":{"type":"Point","coordinates":[13.3851599,52.5577572]}},{"type":"Feature","properties":{"id":"54","categories":["BIBLIOTHEK"],"name":"Bibliothek am Luisenbad","address":"Travemünder Straße 2 / ecke Badstraße","plz":"13357","city":"Berlin","website":"https://www.berlin.de/stadtbibliothek-mitte/bibliotheken/bibliothek-am-luisenbad/"},"geometry":{"type":"Point","coordinates":[13.3810122,52.5552512]}},{"type":"Feature","properties":{"id":"55","categories":["BIBLIOTHEK"],"name":"Bibliothek am Schäfersee","address":"Stargardtstraße 11–13","plz":"13407","city":"Berlin","website":"https://www.berlin.de/stadtbibliothek-reinickendorf/bibliotheken/bibliothek-am-schaefersee/artikel.336756.php"},"geometry":{"type":"Point","coordinates":[13.36005,52.566]}},{"type":"Feature","properties":{"id":"56","categories":["BIBLIOTHEK"],"name":"Bibliothek am Wasserturm","address":"Prenzlauer Allee 227/228","plz":"10405","city":"Berlin","website":"https://www.berlin.de/stadtbibliothek-pankow/bibliotheken/bibliothek-am-wasserturm/"},"geometry":{"type":"Point","coordinates":[13.420337,52.5332325]}},{"type":"Feature","properties":{"id":"57","categories":["BIBLIOTHEK"],"name":"Bibliothek Eva-Maria-Buch-Haus","address":"Götzstraße 8/10/12","plz":"12099","city":"Berlin","website":"https://www.berlin.de/stadtbibliothek-tempelhof-schoeneberg/bibliotheken/bezirkszentralbibliothek/"},"geometry":{"type":"Point","coordinates":[13.3873495,52.4645293]}},{"type":"Feature","properties":{"id":"58","categories":["BIBLIOTHEK"],"name":"Bibliothek im Märkischen Viertel","address":"Wilhelmsruher Damm 142 c","plz":"13439","city":"Berlin","website":"https://www.berlin.de/stadtbibliothek-reinickendorf/bibliotheken/bibliothek-im-maerkischen-viertel/artikel.336916.php"},"geometry":{"type":"Point","coordinates":[13.35225,52.59764]}},{"type":"Feature","properties":{"id":"59","categories":["BIBLIOTHEK"],"name":"Bibliothek Tiergarten-Süd","address":"Lützowstraße 27","plz":"10785","city":"Berlin","website":"https://www.berlin.de/stadtbibliothek-mitte/bibliotheken/bibliothek-tiergarten-sued/"},"geometry":{"type":"Point","coordinates":[13.3635324,52.5037572]}},{"type":"Feature","properties":{"id":"60","categories":["PROJEKTRAUM/PROJEKTINITIATIVE"],"name":"Bibliothekswohnung","address":"Ziegelstr. 2","plz":"10117","city":"Berlin","website":"www.acgebbers.com/Anna-Catharina_Gebbers___Bibliothekswohnung/PRESENT.html"},"geometry":{"type":"Point","coordinates":[10.667444,53.8704954]}},{"type":"Feature","properties":{"id":"61","categories":["WERKSTATT"],"name":"Bildhauerwerkstatt im Kulturwerk des bbk berlin GmbH","address":"Osloer Straße 102","plz":"13359","city":"Berlin","website":"https://www.bbk-kulturwerk.de/con/kulturwerk/front_content.php?idcat=46"},"geometry":{"type":"Point","coordinates":[13.37972,52.55514]}},{"type":"Feature","properties":{"id":"62","categories":["BÜHNEN UND THEATER"],"name":"BKA - Berliner Kabarett Anstalt","address":"Mehringdamm 34","plz":"10961","city":"Berlin","website":"https://www.bka-theater.de/"},"geometry":{"type":"Point","coordinates":[13.3877004,52.4936128]}},{"type":"Feature","properties":{"id":"63","categories":["BIBLIOTHEK"],"name":"Bodo-Uhse-Bibliothek","address":"Erich-Kurz-Straße 9","plz":"10319","city":"Berlin","website":"https://www.berlin.de/ba-lichtenberg/auf-einen-blick/buergerservice/bildung/artikel.298025.php"},"geometry":{"type":"Point","coordinates":[13.5204184,52.4975972]}},{"type":"Feature","properties":{"id":"64","categories":["MUSEUM"],"name":"Brücke Museum","address":"Bussardsteig 9","plz":"14195","city":"Berlin","website":"http://www.bruecke-museum.de/"},"geometry":{"type":"Point","coordinates":[13.27455,52.46682]}},{"type":"Feature","properties":{"id":"65","categories":["BIBLIOTHEK"],"name":"Bruno-Lösche-Bibliothek","address":"Perleberger Straße 33","plz":"10559","city":"Berlin","website":"https://www.berlin.de/stadtbibliothek-mitte/bibliotheken/bruno-loesche-bibliothek/"},"geometry":{"type":"Point","coordinates":[13.3474162,52.5313703]}},{"type":"Feature","properties":{"id":"66","categories":["PROJEKTRAUM/PROJEKTINITIATIVE"],"name":"Büro komPleX","address":"Alte Jakobstraße 12","plz":"10969","city":"Berlin","website":"www.buerokomplex.net"},"geometry":{"type":"Point","coordinates":[13.3993781,52.503931]}},{"type":"Feature","properties":{"id":"67","categories":["KUNST-/KULTURHÄUSER","KULTURVEREINE"],"name":"C/O Berlin / Expose Berlin","address":"Hardenbergstraße 22-24","plz":"10623","city":"Berlin","website":"www.co-berlin.org"},"geometry":{"type":"Point","coordinates":[13.3304503,52.5065616]}},{"type":"Feature","properties":{"id":"68","categories":["BILDENDE KUNST"],"name":"Camping Akademie e.V.","address":"Bizetstrasse 99","plz":"13088","city":"Berlin","website":"www.campingakademie.org"},"geometry":{"type":"Point","coordinates":[13.459786,52.5492674]}},{"type":"Feature","properties":{"id":"69","categories":["PROJEKTRAUM/PROJEKTINITIATIVE"],"name":"Center Berlin","address":"Kurfürstenstraße 174","plz":"10785","city":"Berlin","website":"coeval.gen.in"},"geometry":{"type":"Point","coordinates":[13.3688164,52.4987163]}},{"type":"Feature","properties":{"id":"70","categories":["BILDENDE KUNST"],"name":"Centrum","address":"Reuterstr. 7","plz":"12053","city":"Berlin","website":"http://www.centrumberlin.com/"},"geometry":{"type":"Point","coordinates":[13.4295124,52.4821472]}},{"type":"Feature","properties":{"id":"71","categories":["OPERN","KONZERTHÄUSER","CHÖRE"],"name":"Chorverband Berlin e.V.","address":"Eichendorffstr. 18","plz":"10115","city":"Berlin","website":"https://www.chorverband-berlin.de"},"geometry":{"type":"Point","coordinates":[12.1276682,49.1182502]}},{"type":"Feature","properties":{"id":"72","categories":["TANZSTUDIO/ PERFORMANCE"],"name":"cie toula limnaios","address":"Am Friedrichshain 33","plz":"10407","city":"Berlin","website":"https://toula.de/"},"geometry":{"type":"Point","coordinates":[13.4256794,52.5283962]}},{"type":"Feature","properties":{"id":"73","categories":["KUNSTGALERIEN","AUSSTELLUNGSRÄUME"],"name":"CIRCLE1 Gallery","address":"Hauptstraße 101","plz":"10827","city":"Berlin","website":"circle1berlin.com"},"geometry":{"type":"Point","coordinates":[13.3459242,52.4796075]}},{"type":"Feature","properties":{"id":"74","categories":["BÜHNEN","THEATER"],"name":"Club der Polnischen Versager","address":"Ackerstraße 168","plz":"10115","city":"Berlin","website":"http://www.polnischeversager.de/"},"geometry":{"type":"Point","coordinates":[13.3970948,52.529941]}},{"type":"Feature","properties":{"id":"75","categories":[],"name":"cobratheater.cobra","address":"","plz":"","city":"","website":"www.cobratheatercobra.com/"},"geometry":{"type":"Point","coordinates":[0,0]}},{"type":"Feature","properties":{"id":"76","categories":["MUSEUM"],"name":"Computerspielemuseum","address":"Karl-Marx-Allee 93a","plz":"10243","city":"Berlin","website":"http://www.computerspielemuseum.de/"},"geometry":{"type":"Point","coordinates":[13.442,52.51769]}},{"type":"Feature","properties":{"id":"77","categories":["PROJEKTRAUM/PROJEKTINITIATIVE"],"name":"Concent Art e.V.","address":"Kreuzbergstr.28","plz":"10965","city":"Berlin","website":"http://www.concentart.org/d/index.html"},"geometry":{"type":"Point","coordinates":[13.3780861,52.4897411]}},{"type":"Feature","properties":{"id":"78","categories":["KUNST-/KULTURHÄUSER","KULTURVEREINE"],"name":"ConSense - Ges. zur Förderung von Kultur mbH (Kulturbrauerei)","address":"Schönhauser Allee 36","plz":"10435","city":"Berlin","website":"https://www.kesselhaus.net/"},"geometry":{"type":"Point","coordinates":[13.4130561,52.5386047]}},{"type":"Feature","properties":{"id":"79","categories":["PROJEKTRAUM/PROJEKTINITIATIVE"],"name":"COPYRIGHTberlin","address":"Schwedenstr. 16","plz":"13357","city":"Berlin","website":"www.copyrightberlin.de"},"geometry":{"type":"Point","coordinates":[13.3752283,52.5551018]}},{"type":"Feature","properties":{"id":"80","categories":["LITERATUR","MUSIK","SONSTIGES"],"name":"cx::pm crosxconcepts berlin","address":"wilkestr 21","plz":"13507","city":"Berlin","website":"http://concepts.crosx.net/imprint/"},"geometry":{"type":"Point","coordinates":[13.2746299,52.59005]}},{"type":"Feature","properties":{"id":"81","categories":["BÜHNEN UND THEATER","SONSTIGES"],"name":"CyberRäuber GbR","address":"Chodowieckistrasse 10","plz":"10405","city":"Berlin","website":"http://wp11159761.server-he.de/vtheater/de/home/"},"geometry":{"type":"Point","coordinates":[13.4287001,52.5369681]}},{"type":"Feature","properties":{"id":"82","categories":["KUNSTGALERIEN","AUSSTELLUNGSRÄUME"],"name":"DAAD e.V.","address":"Markgrafenstraße 37","plz":"10117","city":"Berlin","website":"http://www.daadgalerie.de/"},"geometry":{"type":"Point","coordinates":[13.3934685,52.5134042]}},{"type":"Feature","properties":{"id":"83","categories":["TANZSTUDIO/ PERFORMANCE"],"name":"Dachverband Zeitgenössischer Tanz Berlin e.V.","address":"Klosterstr. 68-70","plz":"10179","city":"Berlin","website":"http://www.ztberlin.de/"},"geometry":{"type":"Point","coordinates":[13.4125435,52.5174263]}},{"type":"Feature","properties":{"id":"84","categories":["PROJEKTRAUM/PROJEKTINITIATIVE"],"name":"Dada Post","address":"Nordbahnstraße 10","plz":"13409","city":"Berlin","website":"www.dadapost.com"},"geometry":{"type":"Point","coordinates":[16.3879917,48.2281847]}},{"type":"Feature","properties":{"id":"85","categories":["BÜHNEN","THEATER"],"name":"Das Helmi","address":"Pappelallee 15","plz":"10437","city":"Berlin","website":"http://www.das-helmi.de/"},"geometry":{"type":"Point","coordinates":[13.4148661,52.5430652]}},{"type":"Feature","properties":{"id":"86","categories":["BÜHNEN UND THEATER","DARSTELLENDE KUNST"],"name":"DAS WEITE THEATER e.V.","address":"Parkaue 23","plz":"10367","city":"Berlin","website":"http://www.das-weite-theater.de/"},"geometry":{"type":"Point","coordinates":[13.4765684,52.5164983]}},{"type":"Feature","properties":{"id":"87","categories":["MUSEUM"],"name":"DDR Museum","address":"Karl-Liebknecht-Str. 1","plz":"10178","city":"Berlin","website":"https://www.ddr-museum.de/de"},"geometry":{"type":"Point","coordinates":[13.4026364,52.5193236]}},{"type":"Feature","properties":{"id":"88","categories":["OPERN","KONZERTHÄUSER UND CHÖRE"],"name":"Deutsche Oper Berlin","address":"Richard-Wagner-Straße 10","plz":"10585","city":"Berlin","website":"https://www.deutscheoperberlin.de/"},"geometry":{"type":"Point","coordinates":[11.5643427,48.1475777]}},{"type":"Feature","properties":{"id":"89","categories":["MUSEUM"],"name":"Deutsches Historisches Museum","address":"Unter den Linden 2","plz":"10117","city":"Berlin","website":"https://www.dhm.de"},"geometry":{"type":"Point","coordinates":[13.3965906,52.5187801]}},{"type":"Feature","properties":{"id":"90","categories":["OPERN","KONZERTHÄUSER UND CHÖRE"],"name":"Deutsches Symphonie-Orchester Berlin","address":"Masurenallee 16-20","plz":"14057","city":"Berlin","website":"https://www.dso-berlin.de/de/"},"geometry":{"type":"Point","coordinates":[13.27479,52.50908]}},{"type":"Feature","properties":{"id":"91","categories":["BÜHNEN","THEATER"],"name":"Deutsches Theater / Kammerspiele","address":"Schumannstraße 13a","plz":"10117","city":"Berlin","website":"https://www.deutschestheater.de/"},"geometry":{"type":"Point","coordinates":[13.3816481,52.5242377]}},{"type":"Feature","properties":{"id":"92","categories":["PROJEKTRAUM/PROJEKTINITIATIVE"],"name":"die raum","address":"Oderberger Str. 56","plz":"10435","city":"Berlin","website":"www.dieraum.net"},"geometry":{"type":"Point","coordinates":[13.4101623,52.5381574]}},{"type":"Feature","properties":{"id":"93","categories":["BIBLIOTHEK"],"name":"Dietrich-Bonhoeffer-Bibliothek","address":"Brandenburgische Straße 2","plz":"10713","city":"Berlin","website":"https://www.wir-bieten-vielfalt-einen-ort.de/dietrich-bonhoeffer-bibliothek/"},"geometry":{"type":"Point","coordinates":[13.3200489,52.4871776]}},{"type":"Feature","properties":{"id":"94","categories":["SONSTIGES"],"name":"digiS - Forschungs- und Kompetenzzentrum Digitalisierung / Zuse-Institut","address":"Takustraße 7","plz":"14195","city":"Berlin","website":"https://www.digis-berlin.de/"},"geometry":{"type":"Point","coordinates":[13.29774,52.45554]}},{"type":"Feature","properties":{"id":"95","categories":["PROJEKTRAUM/PROJEKTINITIATIVE"],"name":"Directors Lounge","address":"Petersburger Platz 2","plz":"10249","city":"Berlin","website":"directorslounge.net"},"geometry":{"type":"Point","coordinates":[13.4494716,52.5215718]}},{"type":"Feature","properties":{"id":"96","categories":["BÜHNEN UND THEATER","DARSTELLENDE KUNST","TANZ / PERFORMANCE"],"name":"DOCK 11 GmbH","address":"Kastanienallee 79","plz":"10435","city":"Berlin","website":"http://www.dock11-berlin.de/"},"geometry":{"type":"Point","coordinates":[13.408051,52.5366389]}},{"type":"Feature","properties":{"id":"97","categories":["GEDENKSTÄTTE"],"name":"Dokumentationszentrum NS-Zwangsarbeit Berlin-Schöneweide","address":"Britzer Str. 5","plz":"12439","city":"Berlin","website":"http://www.dz-ns-zwangsarbeit.de/"},"geometry":{"type":"Point","coordinates":[13.518086,52.4531947]}},{"type":"Feature","properties":{"id":"98","categories":["PROJEKTRAUM/PROJEKTINITIATIVE"],"name":"Donau-Ecke Ganghofer","address":"Dieffenbachstr. 35","plz":"10967","city":"Berlin","website":"donaugang.wordpress.com/"},"geometry":{"type":"Point","coordinates":[13.4191531,52.4917379]}},{"type":"Feature","properties":{"id":"99","categories":["MUSEUM"],"name":"Dorfklub Müggelheim","address":"Alt-Müggelheim 21","plz":"12559","city":"Berlin","website":"http://www.mueggelheimer-heimatverein.de/"},"geometry":{"type":"Point","coordinates":[13.6623126,52.4120332]}},{"type":"Feature","properties":{"id":"100","categories":["BILDENDE KUNST"],"name":"Eberhard Bosslet","address":"Weidenweg 69","plz":"10247","city":"Berlin","website":"http://www.bosslet.com"},"geometry":{"type":"Point","coordinates":[6.7498675,51.437326]}},{"type":"Feature","properties":{"id":"101","categories":["BIBLIOTHEK"],"name":"Eberhard-Alexander-Burgh-Bibliothek","address":"Rüdesheimer Straße 14","plz":"14197","city":"Berlin","website":"https://www.wir-bieten-vielfalt-einen-ort.de/eberhard-alexander-burgh-bibliothek/"},"geometry":{"type":"Point","coordinates":[8.2289158,50.0752824]}},{"type":"Feature","properties":{"id":"102","categories":["BIBLIOTHEK"],"name":"Edith-Stein-Bibliothek","address":"Briesingstraße 6","plz":"12307","city":"Berlin","website":"https://www.berlin.de/stadtbibliothek-tempelhof-schoeneberg/bibliotheken/stadtteilbibliothek-lichtenrade/"},"geometry":{"type":"Point","coordinates":[13.39874,52.38568]}},{"type":"Feature","properties":{"id":"103","categories":["MUSEUM","ARCHIVE UND BIBLIOTHEKEN"],"name":"EFGAMP e.V. (European Federations of Game Archives, Museums and Preservation Projects)","address":"Spittastr. 13","plz":"10317","city":"Berlin","website":""},"geometry":{"type":"Point","coordinates":[13.47954,52.50505]}},{"type":"Feature","properties":{"id":"104","categories":["BIBLIOTHEK"],"name":"Egon-Erwin-Kisch-Bibliothek","address":"Frankfurter Allee 149","plz":"10365","city":"Berlin","website":"https://www.berlin.de/ba-lichtenberg/auf-einen-blick/buergerservice/bildung/artikel.298028.php"},"geometry":{"type":"Point","coordinates":[13.4813588,52.5133041]}},{"type":"Feature","properties":{"id":"105","categories":["BÜHNEN","THEATER"],"name":"Ehemaliges Stummfilmkino Delphi","address":"Gustav-Adolf-Straße 2","plz":"13086","city":"Berlin","website":"http://ehemaliges-stummfilmkino-delphi.de/"},"geometry":{"type":"Point","coordinates":[13.4313946,52.5517802]}},{"type":"Feature","properties":{"id":"106","categories":["BIBLIOTHEK"],"name":"Else-Ury-Bibliothek","address":"Glogauer str. 13","plz":"10999","city":"Berlin","website":"https://www.berlin.de/stadtbibliothek-friedrichshain-kreuzberg/bibliotheken/familienbibliothek-glogauer-strasse/"},"geometry":{"type":"Point","coordinates":[13.4362823,52.4926268]}},{"type":"Feature","properties":{"id":"107","categories":["BÜHNEN","THEATER"],"name":"English Theatre Berlin","address":"Fidicinstraße 40","plz":"10965","city":"Berlin","website":"https://www.etberlin.de/"},"geometry":{"type":"Point","coordinates":[13.3885053,52.4871936]}},{"type":"Feature","properties":{"id":"108","categories":["MUSIK"],"name":"Ensemble KNM Berlin","address":"Podewil, Klosterstr. 68","plz":"10179","city":"Berlin","website":"https://www.kammerensemble.de/"},"geometry":{"type":"Point","coordinates":[13.4124572,52.517716]}},{"type":"Feature","properties":{"id":"109","categories":["PROJEKTRAUM/PROJEKTINITIATIVE"],"name":"Errant Sound (Errant Bodies)","address":"Kollwitzstrasse 97","plz":"10435","city":"Berlin","website":"errantsound.net"},"geometry":{"type":"Point","coordinates":[13.4208,52.53918]}},{"type":"Feature","properties":{"id":"110","categories":["PROJEKTRAUM/PROJEKTINITIATIVE"],"name":"Experimentalsystem","address":"","plz":"","city":"Berlin","website":"www.experimentalsystem.net"},"geometry":{"type":"Point","coordinates":[0,0]}},{"type":"Feature","properties":{"id":"111","categories":["KUNST-/KULTURHÄUSER","KULTURVEREINE"],"name":"f3 – freiraum für fotografie","address":"Waldemarstraße 17","plz":"10179","city":"Berlin","website":"http://fhochdrei.org/"},"geometry":{"type":"Point","coordinates":[13.4280437,52.4989716]}},{"type":"Feature","properties":{"id":"112","categories":["PROJEKTRAUM/PROJEKTINITIATIVE"],"name":"Farbvision","address":"Schönhauser Allee 28","plz":"10435","city":"Berlin","website":"www.farbvision.net"},"geometry":{"type":"Point","coordinates":[13.4128896,52.5365701]}},{"type":"Feature","properties":{"id":"113","categories":["MUSEUM","ARCHIVE UND BIBLIOTHEKEN"],"name":"FHXB Friedrichshain-Kreuzberg Museum","address":"Adalbertstr. 95a","plz":"10999","city":"Berlin","website":"https://www.fhxb-museum.de/"},"geometry":{"type":"Point","coordinates":[13.418469,52.500643]}},{"type":"Feature","properties":{"id":"114","categories":["BÜHNEN","THEATER"],"name":"Figurentheater Grashüpfer","address":"Puschkinallee 16 A","plz":"12435","city":"Berlin","website":"http://theater-treptower-park.de/"},"geometry":{"type":"Point","coordinates":[13.46647,52.49164]}},{"type":"Feature","properties":{"id":"115","categories":["PROJEKTRAUM/PROJEKTINITIATIVE"],"name":"FIT – freie internationale Tankstelle","address":"Schwedter Str.262","plz":"10119","city":"Berlin","website":"www.f-i-t.org"},"geometry":{"type":"Point","coordinates":[13.4100558,52.5333749]}},{"type":"Feature","properties":{"id":"116","categories":["BÜHNEN","THEATER"],"name":"Fliegendes Theater","address":"Urbanstraße 100","plz":"10967","city":"Berlin","website":"http://www.fliegendes-theater.de/"},"geometry":{"type":"Point","coordinates":[13.42205,52.48988]}},{"type":"Feature","properties":{"id":"117","categories":["PROJEKTRAUM/PROJEKTINITIATIVE"],"name":"Flutgraben e.V.","address":"Am Flutgraben 3","plz":"12435","city":"Berlin","website":"www.flutgraben.org"},"geometry":{"type":"Point","coordinates":[13.4516979,52.4970977]}},{"type":"Feature","properties":{"id":"118","categories":["MUSEUM"],"name":"Frauenmuseum Berlin e.V.","address":"Goethestraße 37","plz":"10625","city":"Berlin","website":"www.frauenmuseumberlin.de"},"geometry":{"type":"Point","coordinates":[8.672854,50.1145772]}},{"type":"Feature","properties":{"id":"119","categories":["MUSEUM"],"name":"Freies Museum","address":"Bülowstraße 90","plz":"10783","city":"Berlin","website":"www.freies-museum.com/"},"geometry":{"type":"Point","coordinates":[13.360484,52.4984823]}},{"type":"Feature","properties":{"id":"120","categories":["KUNST-/KULTURHÄUSER","KULTURVEREINE"],"name":"Freilichtbühne Spandau","address":"Am Juliusturm 62","plz":"13599","city":"Berlin","website":"http://kulturhaus-spandau.de/"},"geometry":{"type":"Point","coordinates":[13.2165944,52.5397012]}},{"type":"Feature","properties":{"id":"121","categories":["DARSTELLENDE KUNST","MUSIK","TANZ / PERFORMANCE"],"name":"freutma e.V.","address":"Krüllsstraße 2","plz":"12435","city":"Berlin","website":"https://freutma.de"},"geometry":{"type":"Point","coordinates":[13.4479077,52.4925578]}},{"type":"Feature","properties":{"id":"122","categories":["BÜHNEN","THEATER"],"name":"Friedrichstadt-Palast","address":"Friedrichstraße 107","plz":"10117","city":"Berlin","website":"https://www.palast.berlin/"},"geometry":{"type":"Point","coordinates":[13.3887209,52.5240494]}},{"type":"Feature","properties":{"id":"123","categories":["BIBLIOTHEK"],"name":"Friedrich-von-Raumer-Bibliothek","address":"Dudenstr. 18 – 20","plz":"10965","city":"Berlin","website":"https://www.berlin.de/stadtbibliothek-friedrichshain-kreuzberg/bibliotheken/stadtteilbibliothek-dudenstrasse/"},"geometry":{"type":"Point","coordinates":[13.3831476,52.485185]}},{"type":"Feature","properties":{"id":"124","categories":["BILDENDE KUNST"],"name":"frontviews e.V.","address":"Alt Moabit 41","plz":"10555","city":"Berlin","website":"http://www.frontviews.de/"},"geometry":{"type":"Point","coordinates":[13.33272,52.52462]}},{"type":"Feature","properties":{"id":"127","categories":["PROJEKTRAUM/PROJEKTINITIATIVE"],"name":"G.A.S–station","address":"Tempelherrenstrasse 22","plz":"10961","city":"Berlin","website":"www.2gas-station.net"},"geometry":{"type":"Point","coordinates":[13.400171,52.494637]}},{"type":"Feature","properties":{"id":"128","categories":["KUNSTGALERIEN","AUSSTELLUNGSRÄUME"],"name":"Galerie Crystal Ball","address":"Schönleinstr. 7","plz":"10967","city":"Berlin","website":"www.galeriecrystalball.de"},"geometry":{"type":"Point","coordinates":[13.4207943,52.4921445]}},{"type":"Feature","properties":{"id":"129","categories":["KUNSTGALERIEN","AUSSTELLUNGSRÄUME"],"name":"Galerie im Körnerpark","address":"Schierker Str. 8","plz":"12051","city":"Berlin","website":"http://www.xn--krnerpark-07a.de/ausstellungen/"},"geometry":{"type":"Point","coordinates":[13.4380648,52.4717028]}},{"type":"Feature","properties":{"id":"130","categories":["KUNSTGALERIEN","AUSSTELLUNGSRÄUME"],"name":"Galerie Loris","address":"ehem. Potsdamer Str. 65","plz":"10785","city":"Berlin","website":"lorisberlin.de"},"geometry":{"type":"Point","coordinates":[13.366542,52.5035628]}},{"type":"Feature","properties":{"id":"131","categories":["PROJEKTRAUM/PROJEKTINITIATIVE"],"name":"Galerie M","address":"Marzahner Promenade 46","plz":"12679","city":"Berlin","website":"http://www.kultur-marzahn-hellersdorf.de/GALERIE-M.10.0.html"},"geometry":{"type":"Point","coordinates":[13.554951,52.5459238]}},{"type":"Feature","properties":{"id":"132","categories":["KUNSTGALERIEN","AUSSTELLUNGSRÄUME"],"name":"Galerie Nord","address":"Turmstr. 75","plz":"10551","city":"Berlin","website":"http://www.kunstverein-tiergarten.de/"},"geometry":{"type":"Point","coordinates":[13.333852,52.5266505]}},{"type":"Feature","properties":{"id":"133","categories":["KUNSTGALERIEN","AUSSTELLUNGSRÄUME"],"name":"Galerie Pankow","address":"Breite Str. 8","plz":"13187","city":"Berlin","website":"https://galerie-pankow.de/"},"geometry":{"type":"Point","coordinates":[13.4095849,52.5713584]}},{"type":"Feature","properties":{"id":"134","categories":["KUNSTGALERIEN","AUSSTELLUNGSRÄUME"],"name":"Galerie Wedding","address":"Müllerstraße 146/147","plz":"13353","city":"Berlin","website":"http://galeriewedding.de/"},"geometry":{"type":"Point","coordinates":[13.3562332,52.5475028]}},{"type":"Feature","properties":{"id":"135","categories":["KUNSTGALERIEN","AUSSTELLUNGSRÄUME"],"name":"galerie weisser elefant und Atelier Farbklang","address":"Auguststr. 21","plz":"10119","city":"Berlin","website":"http://www.galerieweisserelefant.de/"},"geometry":{"type":"Point","coordinates":[13.39618,52.52676]}},{"type":"Feature","properties":{"id":"136","categories":["KUNSTGALERIEN","AUSSTELLUNGSRÄUME"],"name":"GARTENSTUDIO – frisch & erfinderisch Leben Entwerfen e. V. i.G.","address":"Naunystr. 53","plz":"10999","city":"Berlin","website":"www.gartenstudio.org"},"geometry":{"type":"Point","coordinates":[13.41814,52.50231]}},{"type":"Feature","properties":{"id":"137","categories":["GEDENKSTÄTTEN"],"name":"Gedenkstätte Berlin-Hohenschönhausen","address":"Genslerstraße 66","plz":"13055","city":"Berlin","website":"https://www.stiftung-hsh.de/"},"geometry":{"type":"Point","coordinates":[13.5011448,52.5413581]}},{"type":"Feature","properties":{"id":"138","categories":["GEDENKSTÄTTE"],"name":"Gedenkstätte Deutscher Widerstand","address":"Stauffenbergstraße 13-14","plz":"10785","city":"Berlin","website":"https://www.gdw-berlin.de/home/"},"geometry":{"type":"Point","coordinates":[13.36306,52.50768]}},{"type":"Feature","properties":{"id":"139","categories":["KUNST-/KULTURHÄUSER","KULTURVEREINE"],"name":"Gemeinschaftshaus in der Gropiusstadt","address":"Bat-Yam-Platz 1","plz":"12353","city":"Berlin","website":"http://www.qm-gropiusstadt.de/185.0.html"},"geometry":{"type":"Point","coordinates":[13.4614583,52.425502]}},{"type":"Feature","properties":{"id":"140","categories":["LITERATUR","BILDENDE KUNST","SONSTIGES"],"name":"GERMAN TATAMI","address":"Wriezenerstr.7","plz":"13359","city":"Berlin","website":"www.german-tatami.de"},"geometry":{"type":"Point","coordinates":[13.38892,52.5568015]}},{"type":"Feature","properties":{"id":"141","categories":["BIBLIOTHEK"],"name":"Gertrud-Kolmar-Bibliothek","address":"Pallasstraße 27","plz":"10781","city":"Berlin","website":"https://www.berlin.de/stadtbibliothek-tempelhof-schoeneberg/bibliotheken/stadtteilbibliothek-schoeneberg-nord/"},"geometry":{"type":"Point","coordinates":[13.3577659,52.4943826]}},{"type":"Feature","properties":{"id":"142","categories":["PROJEKTRAUM/PROJEKTINITIATIVE"],"name":"Gitte Bohr c/o West Germany","address":"Skalitzer Str. 133","plz":"10999","city":"Berlin","website":"www.gittebohr.de"},"geometry":{"type":"Point","coordinates":[13.419727,52.499294]}},{"type":"Feature","properties":{"id":"143","categories":["BÜHNEN UND THEATER","LITERATUR","BILDENDE KUNST","DARSTELLENDE KUNST","SONSTIGES"],"name":"Glashaus. Verein der Nutzer der Brotfabrik e.V.","address":"Caligariplatz 1","plz":"13086","city":"Berlin","website":"http://brotfabrik-berlin.de/"},"geometry":{"type":"Point","coordinates":[13.4305089,52.5526252]}},{"type":"Feature","properties":{"id":"144","categories":["BILDENDE KUNST"],"name":"GlogauAir gGmbH","address":"Glogauer Str. 16","plz":"10999","city":"Berlin","website":"www.glogauair.net"},"geometry":{"type":"Point","coordinates":[13.4358725,52.4921651]}},{"type":"Feature","properties":{"id":"145","categories":["DARSTELLENDE KUNST"],"name":"Gob Squad Arts Collective","address":"Skalitzer Str. 59","plz":"10999","city":"Berlin","website":"http://www.gobsquad.com/"},"geometry":{"type":"Point","coordinates":[13.4363671,52.4997467]}},{"type":"Feature","properties":{"id":"146","categories":["BAUDENKMÄLER","SCHLÖSSER","GÄRTEN"],"name":"Gotisches Haus","address":"Breite Str. 32","plz":"13597","city":"Berlin","website":"http://www.gotischeshaus.de/"},"geometry":{"type":"Point","coordinates":[13.2924446,52.4746494]}},{"type":"Feature","properties":{"id":"147","categories":["BIBLIOTHEK"],"name":"Gottfried-Benn-Bibliothek","address":"Nentershäuser Platz 1","plz":"14163","city":"Berlin","website":"https://www.berlin.de/stadtbibliothek-steglitz-zehlendorf/bibliotheken/gottfried-benn-bibliothek/"},"geometry":{"type":"Point","coordinates":[13.2554436,52.4320835]}},{"type":"Feature","properties":{"id":"148","categories":["PROJEKTRAUM/PROJEKTINITIATIVE"],"name":"gr_und","address":"Seestr. 49","plz":"13347","city":"Berlin","website":"www.gr-und.de/"},"geometry":{"type":"Point","coordinates":[13.3535485,52.5508098]}},{"type":"Feature","properties":{"id":"149","categories":["BIBLIOTHEK","GRAPHOTHEK"],"name":"Graphothek Berlin","address":"Königshorster Straße 6","plz":"13439","city":"Berlin","website":"https://www.graphothek-berlin.de/"},"geometry":{"type":"Point","coordinates":[13.3506178,52.5982546]}},{"type":"Feature","properties":{"id":"150","categories":["MUSEUM"],"name":"Grimmuseum","address":"Fichtestraße 2","plz":"10967","city":"Berlin","website":"www.grimmuseum.com"},"geometry":{"type":"Point","coordinates":[13.4128791,52.4910757]}},{"type":"Feature","properties":{"id":"151","categories":["BÜHNEN","THEATER"],"name":"Grips Theater","address":"Altonaer Str. 22","plz":"10557","city":"Berlin","website":"http://www.grips-theater.de/"},"geometry":{"type":"Point","coordinates":[13.3417558,52.5186697]}},{"type":"Feature","properties":{"id":"152","categories":["KUNSTGALERIEN","AUSSTELLUNGSRÄUME"],"name":"Group Global 3000","address":"Leuschnerdamm 19","plz":"10999","city":"Berlin","website":"groupglobal3000.de"},"geometry":{"type":"Point","coordinates":[13.41813,52.50465]}},{"type":"Feature","properties":{"id":"153","categories":["BÜHNEN","THEATER"],"name":"Hack-B-Theater","address":"Stargarder Str. 74","plz":"10437","city":"Berlin","website":"https://www.facebook.com/Hack-B-Theater-364150807310412/"},"geometry":{"type":"Point","coordinates":[13.4172582,52.5470334]}},{"type":"Feature","properties":{"id":"154","categories":["BÜHNEN","THEATER"],"name":"Hans Wurst Nachfahren","address":"Gleditschstraße 5","plz":"10781","city":"Berlin","website":"http://www.hans-wurst-nachfahren.de/"},"geometry":{"type":"Point","coordinates":[13.35541,52.49651]}},{"type":"Feature","properties":{"id":"155","categories":["BIBLIOTHEK"],"name":"Hansabibliothek","address":"Altonaer Straße 15","plz":"10557","city":"Berlin","website":"https://www.berlin.de/stadtbibliothek-mitte/bibliotheken/hansabibliothek/"},"geometry":{"type":"Point","coordinates":[13.3428637,52.5172567]}},{"type":"Feature","properties":{"id":"156","categories":["MUSIK"],"name":"Hans-Werner-Henze-Musikschule","address":"Maratstraße 182","plz":"12683","city":"Berlin","website":"https://www.berlin.de/musikschule-mh/"},"geometry":{"type":"Point","coordinates":[13.55222,52.53214]}},{"type":"Feature","properties":{"id":"157","categories":["KUNSTGALERIEN","AUSSTELLUNGSRÄUME"],"name":"Haus am Kleistpark","address":"Grunewaldstr. 6/7","plz":"10823","city":"Berlin","website":"https://www.hausamkleistpark.de/"},"geometry":{"type":"Point","coordinates":[13.35734,52.49057]}},{"type":"Feature","properties":{"id":"158","categories":["MUSEUM"],"name":"Haus am Waldsee e. V.","address":"Argentinische Allee 30","plz":"14163","city":"Berlin","website":"http://www.hausamwaldsee.de/index.php/de/"},"geometry":{"type":"Point","coordinates":[13.23834,52.44202]}},{"type":"Feature","properties":{"id":"159","categories":["GEDENKSTÄTTE"],"name":"Haus der Wannsee-Konferenz","address":"Am Großen Wannsee 56-58","plz":"14109","city":"Berlin","website":"https://www.ghwk.de/"},"geometry":{"type":"Point","coordinates":[13.16635,52.43233]}},{"type":"Feature","properties":{"id":"160","categories":["LITERATURHAUS"],"name":"Haus für Poesie (Trägerverein: Literaturbrücke Berlin e.V.; bis 2016 \"literaturWERKstatt Berlin\")","address":"Knaackstraße 97","plz":"10435","city":"Berlin","website":"https://www.haus-fuer-poesie.org/de/literaturwerkstatt-berlin/home/"},"geometry":{"type":"Point","coordinates":[13.4142478,52.5403087]}},{"type":"Feature","properties":{"id":"161","categories":["BÜHNEN","THEATER"],"name":"Hebbel am Ufer (HAU 1, 2, 3)","address":"Hallesches Ufer 32","plz":"10963","city":"Berlin","website":"http://www.hebbel-am-ufer.de/"},"geometry":{"type":"Point","coordinates":[13.3862888,52.4990592]}},{"type":"Feature","properties":{"id":"162","categories":["BÜHNEN","THEATER"],"name":"Heimathafen Neukölln","address":"Karl-Marx-Straße 141","plz":"12043","city":"Berlin","website":"https://www.heimathafen-neukoelln.de/"},"geometry":{"type":"Point","coordinates":[13.4393647,52.47696]}},{"type":"Feature","properties":{"id":"163","categories":["MUSEUM"],"name":"Heimatmuseum Zehlendorf","address":"Clayallee 355","plz":"14169","city":"Berlin","website":"http://www.heimatmuseum-zehlendorf.de/"},"geometry":{"type":"Point","coordinates":[13.2602746,52.4354799]}},{"type":"Feature","properties":{"id":"164","categories":["MUSEUM","ARCHIVE UND BIBLIOTHEKEN","LITERATUR","GEDENKSTÄTTEN","BILDENDE KUNST","MUSIK"],"name":"Heimatverein Müggelheim e. V.","address":"Seddiner Weg 10","plz":"12559","city":"Berlin","website":"https://www.mueggelheimer-heimatverein.de"},"geometry":{"type":"Point","coordinates":[13.0112585,52.2715724]}},{"type":"Feature","properties":{"id":"165","categories":["BIBLIOTHEK"],"name":"Heinrich-Böll-Bibliothek","address":"Greifswalder Straße 87","plz":"10409","city":"Berlin","website":"https://www.berlin.de/stadtbibliothek-pankow/bibliotheken/heinrich-boell-bibliothek/"},"geometry":{"type":"Point","coordinates":[13.4409369,52.5419506]}},{"type":"Feature","properties":{"id":"166","categories":["BIBLIOTHEK"],"name":"Heinrich-Schulz-Bibliothek mit Musikabteilung","address":"Otto-Suhr-Allee 96","plz":"10585","city":"Berlin","website":"https://www.wir-bieten-vielfalt-einen-ort.de/heinrich-schulz-bibliothek-mit-musikabteilung/"},"geometry":{"type":"Point","coordinates":[13.3088395,52.5170515]}},{"type":"Feature","properties":{"id":"167","categories":["BIBLIOTHEK"],"name":"Helene-Nathan-Bibliothek","address":"Karl-Marx-Straße 66","plz":"12043","city":"Berlin","website":"https://www.berlin.de/stadtbibliothek-neukoelln/bibliotheken/bezirkszentralbibliothek-helene-nathan-bibliothek/"},"geometry":{"type":"Point","coordinates":[13.4327194,52.4820247]}},{"type":"Feature","properties":{"id":"168","categories":["KUNSTGALERIEN","AUSSTELLUNGSRÄUME"],"name":"HilbertRaum","address":"Reuterstr. 31","plz":"12047","city":"Berlin","website":"www.hilbertraum.org"},"geometry":{"type":"Point","coordinates":[13.4292327,52.4875201]}},{"type":"Feature","properties":{"id":"169","categories":["KUNSTGALERIEN","AUSSTELLUNGSRÄUME"],"name":"Horse & Pony Fine Arts","address":"Altenbrakerstraße 18","plz":"12053","city":"Berlin","website":"www.horseandponyfinearts.com/"},"geometry":{"type":"Point","coordinates":[13.4320805,52.4704143]}},{"type":"Feature","properties":{"id":"170","categories":["SONSTIGES"],"name":"Humboldt Forum Kultur GmbH","address":"Rosenstraße 2","plz":"10178","city":"Berlin","website":"https://www.humboldtforum.com/de"},"geometry":{"type":"Point","coordinates":[10.0021609,53.5535318]}},{"type":"Feature","properties":{"id":"171","categories":["MUSEUM"],"name":"Humboldt Forum, Museum des Ortes","address":"Schloßplatz 7","plz":"10178","city":"Berlin","website":"https://humboldtforum.com/de/"},"geometry":{"type":"Point","coordinates":[11.0038131,49.5982726]}},{"type":"Feature","properties":{"id":"172","categories":["BIBLIOTHEK"],"name":"Humboldt-Bibliothek","address":"Karolinenstraße 19","plz":"13507","city":"Berlin","website":"https://www.berlin.de/stadtbibliothek-reinickendorf/bibliotheken/humboldt-bibliothek/"},"geometry":{"type":"Point","coordinates":[10.88494,49.8908083]}},{"type":"Feature","properties":{"id":"173","categories":["BILDENDE KUNST"],"name":"iCollective e.V.","address":"Pfarrstr. 120","plz":"10317","city":"Berlin","website":"www.icollective-berlin.com"},"geometry":{"type":"Point","coordinates":[13.4762208,52.5046641]}},{"type":"Feature","properties":{"id":"174","categories":["BÜHNEN UND THEATER","DARSTELLENDE KUNST","MUSIK","TANZ / PERFORMANCE"],"name":"IKC ufaFabrik e.V.","address":"Viktoriastr. 10-18","plz":"12105","city":"Berlin","website":"https://www.ufafabrik.de/de"},"geometry":{"type":"Point","coordinates":[13.381799,52.4544783]}},{"type":"Feature","properties":{"id":"175","categories":["PROJEKTRAUM/PROJEKTINITIATIVE"],"name":"IMPORT PROJECTS","address":"Keithstrasse 10","plz":"10787","city":"Berlin","website":"import-projects.org"},"geometry":{"type":"Point","coordinates":[13.3462355,52.5026662]}},{"type":"Feature","properties":{"id":"176","categories":["PROJEKTRAUM/PROJEKTINITIATIVE"],"name":"Infernoesque","address":"Leipziger Strasse 41","plz":"10117","city":"Berlin","website":"www.infernoesque.de"},"geometry":{"type":"Point","coordinates":[13.3942917,52.5101495]}},{"type":"Feature","properties":{"id":"177","categories":["GEDENKSTÄTTE"],"name":"Informationsort Schwerbelastungskörper","address":"General-Pape-Str. / Loewenhardtdamm","plz":"12101","city":"Berlin","website":"http://www.schwerbelastungskoerper.de/"},"geometry":{"type":"Point","coordinates":[13.3721089,52.484558]}},{"type":"Feature","properties":{"id":"178","categories":["BIBLIOTHEK"],"name":"Ingeborg-Bachmann-Bibliothek","address":"Nehringstraße 10","plz":"14059","city":"Berlin","website":"https://www.wir-bieten-vielfalt-einen-ort.de/ingeborg-bachmann-bibliothek/"},"geometry":{"type":"Point","coordinates":[13.293845,52.5145073]}},{"type":"Feature","properties":{"id":"179","categories":["BIBLIOTHEK"],"name":"Ingeborg-Drewitz-Bibliothek","address":"Grunewaldstraße 3","plz":"12165","city":"Berlin","website":"https://www.berlin.de/stadtbibliothek-steglitz-zehlendorf/bibliotheken/ingeborg-drewitz-bibliothek/"},"geometry":{"type":"Point","coordinates":[13.319924,52.457494]}},{"type":"Feature","properties":{"id":"180","categories":["PROJEKTRAUM/PROJEKTINITIATIVE"],"name":"Institut für Alles Mögliche","address":"Ackerstraße 18","plz":"10115","city":"Berlin","website":"www.i-a-m.tk"},"geometry":{"type":"Point","coordinates":[13.3966893,52.5313424]}},{"type":"Feature","properties":{"id":"181","categories":["BIBLIOTHEK"],"name":"Janusz-Korczak-Bibliothek","address":"Berliner Straße 120/121","plz":"13187","city":"Berlin","website":"https://www.berlin.de/stadtbibliothek-pankow/bibliotheken/janusz-korczak-bibliothek/"},"geometry":{"type":"Point","coordinates":[13.41221,52.5686]}},{"type":"Feature","properties":{"id":"182","categories":["BÜHNEN","THEATER"],"name":"JARO Theater","address":"Schlangenbader Str. 30","plz":"14197","city":"Berlin","website":"https://www.theater-jaro.de/"},"geometry":{"type":"Point","coordinates":[13.3076487,52.471613]}},{"type":"Feature","properties":{"id":"183","categories":["JUGEND-KULTURORGANISATION"],"name":"Jeunesse Musicales Deutschland e.V.","address":"Taunusstraße 6","plz":"12161","city":"Berlin","website":"https://www.jmd.info/"},"geometry":{"type":"Point","coordinates":[8.6686527,50.110082]}},{"type":"Feature","properties":{"id":"184","categories":["BIBLIOTHEK"],"name":"Johanna-Moosdorf-Bibliothek","address":"Westendallee 45","plz":"14052","city":"Berlin","website":"https://www.wir-bieten-vielfalt-einen-ort.de/johanna-moosdorf-bibliothek/"},"geometry":{"type":"Point","coordinates":[13.2579324,52.5106633]}},{"type":"Feature","properties":{"id":"185","categories":["MUSIKSCHULE"],"name":"Joseph-Schmidt-Musikschule","address":"Freiheit 15","plz":"12555","city":"Berlin","website":"https://www.berlin.de/musikschule-treptow-koepenick/"},"geometry":{"type":"Point","coordinates":[13.5769115,52.4480955]}},{"type":"Feature","properties":{"id":"186","categories":["MUSEUM"],"name":"Jüdisches Museum Berlin","address":"Lindenstraße 9-14","plz":"10969","city":"Berlin","website":"https://www.jmberlin.de/"},"geometry":{"type":"Point","coordinates":[13.394973,52.501973]}},{"type":"Feature","properties":{"id":"187","categories":["BÜHNEN","THEATER"],"name":"Jüdisches Theater","address":"Meinekestraße 24","plz":"10719","city":"Berlin","website":"https://www.djthe.de"},"geometry":{"type":"Point","coordinates":[13.3293332,52.5021172]}},{"type":"Feature","properties":{"id":"188","categories":["MUSEUM","SONSTIGES"],"name":"Jugend im Museum e.V.","address":"Rigaer Straße 108","plz":"10247","city":"Berlin","website":"http://www.jugend-im-museum.de/"},"geometry":{"type":"Point","coordinates":[13.4541371,52.5184755]}},{"type":"Feature","properties":{"id":"189","categories":["JUGEND-KULTURORGANISATION"],"name":"Jugendkunstschule derArt","address":"Heidenauer Straße 10","plz":"12627","city":"Berlin","website":"https://www.jugendkunstschule-der-art.de/"},"geometry":{"type":"Point","coordinates":[13.6094879,52.5361354]}},{"type":"Feature","properties":{"id":"190","categories":["BILDENDE KUNST","DARSTELLENDE KUNST"],"name":"Jugendkunstschule Neukölln / YoungArts Neukölln","address":"Donaustraße, 42","plz":"12043","city":"Berlin","website":"http://youngarts-nk.de/"},"geometry":{"type":"Point","coordinates":[11.00617,50.99313]}},{"type":"Feature","properties":{"id":"191","categories":["JUGEND-KULTURORGANISATION"],"name":"Jugendtheaterwerkstatt Spandau","address":"Gelsenkircher Str. 20","plz":"13583","city":"Berlin","website":"https://jtw-spandau.de/"},"geometry":{"type":"Point","coordinates":[7.158894,51.5271412]}},{"type":"Feature","properties":{"id":"192","categories":["JUGEND-KULTURORGANISATION"],"name":"Junge Kunst Mitte: Kinderkunsthaus/ Kinderkunstwerkstatt","address":"Schönwalder Str. 19","plz":"13347","city":"Berlin","website":"http://www.junge-kunst-mitte.de/category/kkw#legal"},"geometry":{"type":"Point","coordinates":[13.370861,52.5417415]}},{"type":"Feature","properties":{"id":"193","categories":["DARSTELLENDE KUNST","MUSIK","TANZ / PERFORMANCE","SONSTIGES"],"name":"k&k kultkom","address":"Crellestraße 22","plz":"10827","city":"Berlin","website":"http://www.kultkom.de/"},"geometry":{"type":"Point","coordinates":[13.3621088,52.4882947]}},{"type":"Feature","properties":{"id":"194","categories":["TANZSTUDIO/ PERFORMANCE"],"name":"K77 studio","address":"Kastanienallee 77","plz":"10435","city":"Berlin","website":"http://k77studio.org/de/home/"},"geometry":{"type":"Point","coordinates":[13.40814,52.53637]}},{"type":"Feature","properties":{"id":"195","categories":["MUSEUM"],"name":"Käthe-Kollwitz-Museum Berlin","address":"Fasanenstr. 24","plz":"10719","city":"Berlin","website":"https://www.kaethe-kollwitz.de/"},"geometry":{"type":"Point","coordinates":[13.3269652,52.5017099]}},{"type":"Feature","properties":{"id":"196","categories":["LITERATUR","DARSTELLENDE KUNST","MUSIK"],"name":"Kesselhaus Kulturbrauerei Consense GmbH","address":"Schönhauser Allee 36,","plz":"10435","city":"Berlin","website":"https://www.kesselhaus.net/"},"geometry":{"type":"Point","coordinates":[13.4130561,52.5386047]}},{"type":"Feature","properties":{"id":"197","categories":["BÜHNEN UND THEATER","DARSTELLENDE KUNST","MUSIK","TANZ / PERFORMANCE","SONSTIGES"],"name":"Kinder & JugendTheater MEINE BÜHNE / ALTE KAPELLE - Theater & Performancehaus","address":"Boxhagener Straße 99","plz":"10245","city":"Berlin","website":"http://www.murkelbuehne.de/"},"geometry":{"type":"Point","coordinates":[13.4609285,52.5123722]}},{"type":"Feature","properties":{"id":"198","categories":["BÜHNEN UND THEATER"],"name":"Kleines Theater am Südwestkorso","address":"Südwestkorso 64","plz":"12161","city":"Berlin","website":"https://www.kleines-theater.de/"},"geometry":{"type":"Point","coordinates":[13.3223399,52.47331]}},{"type":"Feature","properties":{"id":"199","categories":["GEDENKSTÄTTE"],"name":"Klosterruine (siehe Galerie Wedding)","address":"Klosterstr. 73a","plz":"10178","city":"Berlin","website":"http://klosterruine.berlin/"},"geometry":{"type":"Point","coordinates":[13.41234,52.51837]}},{"type":"Feature","properties":{"id":"200","categories":["OPERN","KONZERTHÄUSER","CHÖRE"],"name":"Komische Oper Berlin","address":"Behrenstraße 55-57","plz":"10117","city":"Berlin","website":"https://www.komische-oper-berlin.de/"},"geometry":{"type":"Point","coordinates":[13.3868518,52.5159935]}},{"type":"Feature","properties":{"id":"201","categories":["KUNSTGALERIEN","AUSSTELLUNGSRÄUME"],"name":"Kommunale Galerie Berlin","address":"Hohenzollerndamm 176","plz":"10713","city":"Berlin","website":"https://www.kommunalegalerie-berlin.de/"},"geometry":{"type":"Point","coordinates":[13.3118077,52.4894393]}},{"type":"Feature","properties":{"id":"202","categories":["KUNSTGALERIEN","AUSSTELLUNGSRÄUME"],"name":"Kommunale Galerie im Historischen Keller","address":"Carl-Schurz-Str. 49/51","plz":"13597","city":"Berlin","website":"http://www.galeriehistorischerkeller.de/"},"geometry":{"type":"Point","coordinates":[13.2045119,52.5384072]}},{"type":"Feature","properties":{"id":"203","categories":["BÜHNEN","THEATER"],"name":"Komödie am Kurfürstendamm","address":"Kurfürstendamm 206","plz":"10719","city":"Berlin","website":"https://www.komoedie-berlin.de/start/index.html"},"geometry":{"type":"Point","coordinates":[13.323509,52.501986]}},{"type":"Feature","properties":{"id":"204","categories":["OPERN","KONZERTHÄUSER","CHÖRE"],"name":"Konzerthaus Berlin / Schauspielhaus am Gendarmenmarkt","address":"Gendarmenmarkt","plz":"10117","city":"Berlin","website":"https://www.konzerthaus.de/de/"},"geometry":{"type":"Point","coordinates":[13.3926698,52.5137224]}},{"type":"Feature","properties":{"id":"205","categories":["PROJEKTRAUM/PROJEKTINITIATIVE"],"name":"Kotti-Shop","address":"Adalbertstraße 4","plz":"10999","city":"Berlin","website":"http://www.kotti-shop.net/about.html"},"geometry":{"type":"Point","coordinates":[13.41895,52.5]}},{"type":"Feature","properties":{"id":"206","categories":["BILDENDE KUNST"],"name":"KREUZBERG PAVILLON","address":"Naunynstrasse 53","plz":"10999","city":"Berlin","website":"kreuzbergpavillon.tumblr.com"},"geometry":{"type":"Point","coordinates":[13.41814,52.50231]}},{"type":"Feature","properties":{"id":"207","categories":["PROJEKTRAUM/PROJEKTINITIATIVE"],"name":"Kronenboden","address":"Schwedenstraße 16","plz":"13357","city":"Berlin","website":"www.kronenboden.de"},"geometry":{"type":"Point","coordinates":[13.3752283,52.5551018]}},{"type":"Feature","properties":{"id":"208","categories":["BÜHNEN UND THEATER","OPERN","KONZERTHÄUSER UND CHÖRE","BILDENDE KUNST","DARSTELLENDE KUNST","MUSIK","TANZ / PERFORMANCE"],"name":"Kultur Büro Elisabeth gGmbH","address":"Invalidenstr. 4a","plz":"10115","city":"Berlin","website":"www.elisabeth.berlin"},"geometry":{"type":"Point","coordinates":[13.39679,52.53272]}},{"type":"Feature","properties":{"id":"209","categories":["KUNST-/KULTURHÄUSER","KULTURVEREINE"],"name":"Kulturbund Treptow Kulturring in Berlin","address":"Ernststr. 14/16","plz":"12437","city":"Berlin","website":"https://www.kulturring.org/index.php?ortsteil=56"},"geometry":{"type":"Point","coordinates":[13.4891621,52.4657052]}},{"type":"Feature","properties":{"id":"210","categories":["KUNST-/KULTURHÄUSER","KULTURVEREINE"],"name":"Kulturforum Hellersdorf","address":"Carola-Neher-Str. 1","plz":"12619","city":"Berlin","website":"https://www.kulturring.org/"},"geometry":{"type":"Point","coordinates":[13.5925904,52.5306992]}},{"type":"Feature","properties":{"id":"211","categories":["KUNST-/KULTURHÄUSER","KULTURVEREINE"],"name":"KulturGut","address":"Alt-Marzahn 23","plz":"12685","city":"Berlin","website":"http://www.agrar-boerse-ev.de/standorte-projekte/marzahn-hellersdorf/kulturgut/"},"geometry":{"type":"Point","coordinates":[13.5581523,52.5441622]}},{"type":"Feature","properties":{"id":"212","categories":["KUNST-/KULTURHÄUSER","KULTURVEREINE"],"name":"Kulturhaus","address":"Kyffhäuser Str. 23","plz":"10781","city":"Berlin","website":"http://www.dezentrale-kulturarbeit.de/kulturhaus-schoeneberg-53.html"},"geometry":{"type":"Point","coordinates":[13.3522815,52.4940786]}},{"type":"Feature","properties":{"id":"213","categories":["KUNST-/KULTURHÄUSER","KULTURVEREINE"],"name":"Kulturhaus Alte Feuerwache","address":"Marchlewskistr. 6","plz":"10243","city":"Berlin","website":"http://www.alte-feuerwache-friedrichshain.de/alte-feuerwache/"},"geometry":{"type":"Point","coordinates":[13.4422397,52.5162516]}},{"type":"Feature","properties":{"id":"214","categories":["BÜHNEN UND THEATER"],"name":"Kulturhaus Spandau, Freilichtbühne an der Zitadelle","address":"Mauerstr. 6","plz":"13597","city":"Berlin","website":"http://kulturhaus-spandau.de/veranstaltungsort/freilichtbuehne-an-der-zitadelle/"},"geometry":{"type":"Point","coordinates":[13.2022659,52.5355225]}},{"type":"Feature","properties":{"id":"215","categories":["PROJEKTRAUM/PROJEKTINITIATIVE"],"name":"Kulturpalast Wedding International","address":"Freienwalder Str. 20","plz":"13359","city":"Berlin","website":"www.kulturpalastwedding.wordpress.com"},"geometry":{"type":"Point","coordinates":[13.3920178,52.5583494]}},{"type":"Feature","properties":{"id":"216","categories":["BÜHNEN UND THEATER","DARSTELLENDE KUNST"],"name":"Kulturprojekte Berlin GmbH / Schaubude Berlin","address":"Greifswalder Straße 81-84","plz":"10405","city":"Berlin","website":"https://www.schaubude.berlin/"},"geometry":{"type":"Point","coordinates":[13.4389117,52.5408215]}},{"type":"Feature","properties":{"id":"217","categories":["BÜHNEN UND THEATER","LITERATUR","BILDENDE KUNST","DARSTELLENDE KUNST","MUSIK","TANZ / PERFORMANCE","SONSTIGES"],"name":"Kulturring in Berlin e.V.","address":"Giselastr. 12","plz":"10317","city":"Berlin","website":"https://www.kulturring.org/"},"geometry":{"type":"Point","coordinates":[11.5860326,48.1549648]}},{"type":"Feature","properties":{"id":"218","categories":["BILDENDE KUNST"],"name":"Kulturwerk des bbk berlin","address":"Köthener Straße 44","plz":"10963","city":"Berlin","website":"https://www.bbk-berlin.de/"},"geometry":{"type":"Point","coordinates":[13.3776591,52.5071185]}},{"type":"Feature","properties":{"id":"219","categories":["KUNST-/KULTURHÄUSER","KULTURVEREINE"],"name":"Kulturzentrum Adlershof, Alte Schule mit Galerie und Kunstverleih Treptow-Köpenick","address":"Dörpfeldstr. 54/56","plz":"12489","city":"Berlin","website":"http://www.galerie-alte-schule-adlershof.de/kulturzentrum/"},"geometry":{"type":"Point","coordinates":[13.54977,52.43887]}},{"type":"Feature","properties":{"id":"220","categories":["KUNST-/KULTURHÄUSER","KULTURVEREINE"],"name":"Kulturzentrum Kino Kiste","address":"Heidenauer Str. 10","plz":"12627","city":"Berlin","website":"https://www.kiste.net/"},"geometry":{"type":"Point","coordinates":[13.6094879,52.5361354]}},{"type":"Feature","properties":{"id":"221","categories":["BILDENDE KUNST"],"name":"Kunsthalle am Hamburger Platz","address":"c/o weissensee kunsthochschle berlin, Bühringstr. 20","plz":"13086","city":"Berlin","website":"kunsthalle.kunsthochschule-berlin.de"},"geometry":{"type":"Point","coordinates":[13.4393999,52.55804]}},{"type":"Feature","properties":{"id":"222","categories":["MUSEUM"],"name":"Kunsthaus Dahlem","address":"Käuzchensteig 8","plz":"14195","city":"Berlin","website":"http://kunsthaus-dahlem.de/"},"geometry":{"type":"Point","coordinates":[13.27435,52.4663]}},{"type":"Feature","properties":{"id":"223","categories":["KUNST-/KULTURHÄUSER","KULTURVEREINE"],"name":"Kunsthaus Flora","address":"Florastr. 113","plz":"12623","city":"Berlin","website":"http://www.kultur-marzahn-hellersdorf.de/KUNSTHAUS-FLORA.723.0.html"},"geometry":{"type":"Point","coordinates":[13.62182,52.51759]}},{"type":"Feature","properties":{"id":"224","categories":["KUNST-/KULTURHÄUSER","KULTURVEREINE"],"name":"Kunsthaus Kule","address":"Auguststraße 10","plz":"10117","city":"Berlin","website":"www.kunsthauskule.de"},"geometry":{"type":"Point","coordinates":[13.39412,52.52644]}},{"type":"Feature","properties":{"id":"225","categories":["KUNST-/KULTURHÄUSER","KULTURVEREINE"],"name":"Kunsthaus/Sternwarte","address":"Heerstr. 529/531","plz":"13593","city":"Berlin","website":"https://www.berlin.de/adressen/verein/arbeitskreis-spandauer-kuenstler-berlin-ev-4f143fecb4fc475f0b7c8900.html"},"geometry":{"type":"Point","coordinates":[13.1478443,52.5230331]}},{"type":"Feature","properties":{"id":"226","categories":["KUNST-/KULTURHÄUSER","KULTURVEREINE"],"name":"Künstlerhaus","address":"Nonnendamm 17","plz":"13627","city":"Berlin","website":"https://www.berlin.de/ba-charlottenburg-wilmersdorf/ueber-den-bezirk/bezirkliche-einrichtungen/artikel.224326.php"},"geometry":{"type":"Point","coordinates":[13.28609,52.53028]}},{"type":"Feature","properties":{"id":"227","categories":["KUNST-/KULTURHÄUSER","KULTURVEREINE"],"name":"Künstlerhaus Bethanien (KHB)","address":"Kottbusser Str. 10","plz":"10999","city":"Berlin","website":"https://www.bethanien.de/"},"geometry":{"type":"Point","coordinates":[13.4185893,52.49698]}},{"type":"Feature","properties":{"id":"228","categories":["KUNST-/KULTURHÄUSER","KULTURVEREINE"],"name":"Kunstremise","address":"Jüdenstr. 1","plz":"13597","city":"Berlin","website":"https://www.casa-ev.de/de/kunst-und-kultur/kunstremise-spandau.html"},"geometry":{"type":"Point","coordinates":[13.408724,52.5188313]}},{"type":"Feature","properties":{"id":"229","categories":["KUNST-/KULTURHÄUSER","KULTURVEREINE"],"name":"Kunstverein Neukölln e.V.","address":"Mainzer Straße 42","plz":"12053","city":"Berlin","website":"www.kunstverein-neukoelln.de"},"geometry":{"type":"Point","coordinates":[7.3024732,49.7186476]}},{"type":"Feature","properties":{"id":"230","categories":["KUNSTGALERIEN","AUSSTELLUNGSRÄUME"],"name":"Kunst-Werke Berlin - Institute for Contemporary Art (& Biennale Berlin --> zwei verschiedene Aspekte des Vereins)","address":"Auguststraße 69","plz":"10117","city":"Berlin","website":"https://www.kw-berlin.de/"},"geometry":{"type":"Point","coordinates":[13.3949574,52.5268334]}},{"type":"Feature","properties":{"id":"231","categories":["PROJEKTRAUM/PROJEKTINITIATIVE"],"name":"Kurt-Kurt","address":"Lübecker Straße 13","plz":"10559","city":"Berlin","website":"www.kurt-kurt.de"},"geometry":{"type":"Point","coordinates":[11.6371594,52.1539115]}},{"type":"Feature","properties":{"id":"232","categories":["BIBLIOTHEK"],"name":"Kurt-Tucholsky-Bibliothek","address":"Esmarchstraße 18","plz":"10407","city":"Berlin","website":"https://www.berlin.de/stadtbibliothek-pankow/bibliotheken/kurt-tucholsky-bibliothek/"},"geometry":{"type":"Point","coordinates":[13.4322404,52.532917]}},{"type":"Feature","properties":{"id":"233","categories":["PROJEKTRAUM/PROJEKTINITIATIVE"],"name":"L’oiseau présente, c/o Ballhaus Ost","address":"Pappelallee 15","plz":"10437","city":"Berlin","website":"www.loiseaupresente.blogspot.de"},"geometry":{"type":"Point","coordinates":[13.4148661,52.5430652]}},{"type":"Feature","properties":{"id":"234","categories":["PROJEKTRAUM/PROJEKTINITIATIVE"],"name":"Labor Neunzehn","address":"Kiefholzstr.19/20","plz":"12435","city":"Berlin","website":"www.laborneunzehn.org"},"geometry":{"type":"Point","coordinates":[13.45096,52.49083]}},{"type":"Feature","properties":{"id":"235","categories":["TANZSTUDIO/ PERFORMANCE"],"name":"Laborgras","address":"Großbeerenstraße 56E","plz":"10965","city":"Berlin","website":"http://www.laborgras.com/"},"geometry":{"type":"Point","coordinates":[13.3841901,52.49244]}},{"type":"Feature","properties":{"id":"236","categories":["BÜHNEN UND THEATER","OPERN","KONZERTHÄUSER UND CHÖRE","ARCHIVE UND BIBLIOTHEKEN","DARSTELLENDE KUNST","TANZ / PERFORMANCE"],"name":"LAFT Berlin - Landesverband freie darstellende Künste e.V.","address":"Pappelalle 15","plz":"10437","city":"Berlin","website":"https://www.laft-berlin.de/"},"geometry":{"type":"Point","coordinates":[13.4148661,52.5430652]}},{"type":"Feature","properties":{"id":"237","categories":["PROJEKTRAUM/PROJEKTINITIATIVE"],"name":"Lage Egal","address":"Liselotte–Herrmann–Str. 26","plz":"10407","city":"Berlin","website":"WWW.LAGE-EGAL.NET"},"geometry":{"type":"Point","coordinates":[13.4373099,52.53121]}},{"type":"Feature","properties":{"id":"238","categories":["BÜHNEN UND THEATER","DARSTELLENDE KUNST","TANZ / PERFORMANCE"],"name":"Lake Studios berlin","address":"Scharnweberstrasse 27","plz":"12587","city":"Berlin","website":"https://www.lakestudiosberlin.com/"},"geometry":{"type":"Point","coordinates":[13.6279335,52.4509175]}},{"type":"Feature","properties":{"id":"239","categories":["ARCHIV"],"name":"Landesarchiv Berlin","address":"Eichborndamm 115","plz":"13403","city":"Berlin","website":"http://landesarchiv-berlin.de/"},"geometry":{"type":"Point","coordinates":[13.31674,52.57997]}},{"type":"Feature","properties":{"id":"240","categories":["LANDESMUSIKRAT"],"name":"Landesmusikrat Berlin e.V.","address":"Lübecker Straße 23","plz":"10559","city":"Berlin","website":"https://www.landesmusikrat-berlin.de/"},"geometry":{"type":"Point","coordinates":[11.6361032,52.1563821]}},{"type":"Feature","properties":{"id":"241","categories":["MUSIKSCHULE"],"name":"Leo Kestenberg Musikschule","address":"Grunewaldstr. 6-7","plz":"10823","city":"Berlin","website":"https://www.lkms.de/"},"geometry":{"type":"Point","coordinates":[13.35734,52.49057]}},{"type":"Feature","properties":{"id":"242","categories":["MUSIK"],"name":"Leo-Borchard-Musikschule","address":"Martin-Buber-Str. 21","plz":"14160","city":"Berlin","website":"https://www.berlin.de/musikschule-steglitz-zehlendorf/"},"geometry":{"type":"Point","coordinates":[13.2562899,52.43359]}},{"type":"Feature","properties":{"id":"243","categories":["LITERATURHAUS"],"name":"LesArt - Berliner Zentrum für Kinder- und Jugendliteratur","address":"Weinmeisterstraße 5","plz":"10178","city":"Berlin","website":"http://www.lesart.org/"},"geometry":{"type":"Point","coordinates":[13.4050891,52.5252889]}},{"type":"Feature","properties":{"id":"244","categories":[],"name":"Lettrétage","address":"Mehringdamm 61","plz":"10961","city":"Berlin","website":"https://www.lettretage.de"},"geometry":{"type":"Point","coordinates":[13.3871714,52.4908091]}},{"type":"Feature","properties":{"id":"245","categories":["PROJEKTRAUM/PROJEKTINITIATIVE"],"name":"liebig12","address":"Liebigstraße 12","plz":"10247","city":"Berlin","website":"http://www.liebig12.net/about/"},"geometry":{"type":"Point","coordinates":[13.45707,52.51753]}},{"type":"Feature","properties":{"id":"246","categories":["LITERATURHAUS"],"name":"Literarisches Colloquium Berlin (LCB)","address":"Am Sandwerder 5","plz":"14109","city":"Berlin","website":"https://www.lcb.de/home/"},"geometry":{"type":"Point","coordinates":[13.17849,52.42279]}},{"type":"Feature","properties":{"id":"247","categories":["LITERATURHAUS"],"name":"Literaturforum im Brecht-Haus","address":"Chausseestraße 125","plz":"10115","city":"Berlin","website":"http://lfbrecht.de/"},"geometry":{"type":"Point","coordinates":[13.384675,52.5289063]}},{"type":"Feature","properties":{"id":"248","categories":["LITERATURHAUS"],"name":"Literaturhaus Berlin e.V.","address":"Fasanenstraße 23","plz":"10719","city":"Berlin","website":"http://literaturhaus-berlin.de/"},"geometry":{"type":"Point","coordinates":[13.3268322,52.5021563]}},{"type":"Feature","properties":{"id":"249","categories":["PROJEKTRAUM/PROJEKTINITIATIVE"],"name":"Loge","address":"Friedrichstrasse 210","plz":"10969","city":"Berlin","website":"www.loge-berlin.com"},"geometry":{"type":"Point","coordinates":[13.390169,52.5065271]}},{"type":"Feature","properties":{"id":"250","categories":["BIBLIOTHEK","GRAPHOTHEK"],"name":"Magistratsbibliothek","address":"Otto-Suhr-Allee 100","plz":"10585","city":"Berlin","website":"https://www.berlin.de/ba-charlottenburg-wilmersdorf/verwaltung/interne-dienste/verwaltungsinformationszentrum-viz/"},"geometry":{"type":"Point","coordinates":[13.3082708,52.5172421]}},{"type":"Feature","properties":{"id":"251","categories":["KUNSTGALERIEN","AUSSTELLUNGSRÄUME"],"name":"Manière Noire","address":"Waldenserstr. 7a","plz":"10551","city":"Berlin","website":"www.manierenoire.net"},"geometry":{"type":"Point","coordinates":[13.33517,52.52882]}},{"type":"Feature","properties":{"id":"252","categories":["BÜHNEN","THEATER"],"name":"Maxim Gorki Theater","address":"Am Festungsgraben 2","plz":"10117","city":"Berlin","website":"http://www.gorki.de/de"},"geometry":{"type":"Point","coordinates":[13.39509,52.5188]}},{"type":"Feature","properties":{"id":"253","categories":["PROJEKTRAUM/PROJEKTINITIATIVE"],"name":"MEINBLAU e.V.","address":"Christinenstraße 18-19","plz":"10119","city":"Berlin","website":"www.meinblau.de"},"geometry":{"type":"Point","coordinates":[13.4101136,52.5322475]}},{"type":"Feature","properties":{"id":"254","categories":["BÜHNEN","THEATER"],"name":"MEINE BÜHNE; Kinder & JugendTheater","address":"Boxhagener Str. 99","plz":"10245","city":"Berlin","website":"www.murkelbuehne.de"},"geometry":{"type":"Point","coordinates":[13.4609285,52.5123722]}},{"type":"Feature","properties":{"id":"255","categories":["PROJEKTRAUM/PROJEKTINITIATIVE"],"name":"Mica Moca berlin project","address":"Brunnenstrasse 169","plz":"10119","city":"Berlin","website":"www.micamoca.de"},"geometry":{"type":"Point","coordinates":[13.39819,52.53355]}},{"type":"Feature","properties":{"id":"256","categories":["KUNSTGALERIEN","AUSSTELLUNGSRÄUME"],"name":"Mies van der Rohe Haus","address":"Oberseestr. 60","plz":"13053","city":"Berlin","website":"http://www.miesvanderrohehaus.de/"},"geometry":{"type":"Point","coordinates":[13.4908126,52.5493487]}},{"type":"Feature","properties":{"id":"257","categories":["ARCHIV"],"name":"Mime Centrum Berlin","address":"Mariannenpl. 2","plz":"10997","city":"Berlin","website":"http://www.mimecentrum.iti-germany.de/"},"geometry":{"type":"Point","coordinates":[13.4240746,52.5038945]}},{"type":"Feature","properties":{"id":"258","categories":["BIBLIOTHEK"],"name":"Mittelpunktbibliothek Ehm Welk","address":"Alte Hellersdorfer Straße 125","plz":"12629","city":"Berlin","website":"https://www.berlin.de/bibliotheken-mh/bibliotheken/mittelpunktbibliothek-ehm-welk/"},"geometry":{"type":"Point","coordinates":[13.59209,52.5465]}},{"type":"Feature","properties":{"id":"259","categories":["BIBLIOTHEK"],"name":"Mittelpunktbibliothek Köpenick „Alter Markt“","address":"Alter Markt 2","plz":"12555","city":"Berlin","website":"https://www.berlin.de/stadtbibliothek-treptow-koepenick/bibliotheken/mittelpunktbibliothek-koepenick/"},"geometry":{"type":"Point","coordinates":[13.0455469,47.8001555]}},{"type":"Feature","properties":{"id":"260","categories":["BIBLIOTHEK"],"name":"Mittelpunktbibliothek Schöneberg","address":"Martin-Luther-Straße 77","plz":"10825","city":"Berlin","website":"https://www.berlin.de/stadtbibliothek-tempelhof-schoeneberg/bibliotheken/thomas-dehler-bibliothek/"},"geometry":{"type":"Point","coordinates":[13.3457162,52.4881838]}},{"type":"Feature","properties":{"id":"261","categories":["BIBLIOTHEK"],"name":"Mittelpunktbibliothek Treptow","address":"Michael-Brückner-Str. 9","plz":"12439","city":"Berlin","website":"https://www.berlin.de/stadtbibliothek-treptow-koepenick/bibliotheken/mittelpunktbibliothek-treptow/"},"geometry":{"type":"Point","coordinates":[13.5139523,52.4540327]}},{"type":"Feature","properties":{"id":"262","categories":["PROJEKTRAUM/PROJEKTINITIATIVE"],"name":"mp43 projektraum für das periphere","address":"Stollberger Str. 73","plz":"12627","city":"Berlin","website":"www.mp43.culturebase.org"},"geometry":{"type":"Point","coordinates":[13.60268,52.5335]}},{"type":"Feature","properties":{"id":"263","categories":["MUSEUM"],"name":"Museen Tempelhof-Schöneberg","address":"Hauptstraße 40 /42","plz":"10827","city":"Berlin","website":"https://www.museen-tempelhof-schoeneberg.de"},"geometry":{"type":"Point","coordinates":[13.350982,52.483893]}},{"type":"Feature","properties":{"id":"265","categories":["INKLUSION"],"name":"Museum Blindenwerkstadt Otto Weidt in der Stiftung Gedenstätte Deutscher Widerstand","address":"Rosenthaler Straße 39","plz":"10178","city":"Berlin","website":"https://www.museum-blindenwerkstatt.de/de/mbow/"},"geometry":{"type":"Point","coordinates":[13.4021617,52.5242848]}},{"type":"Feature","properties":{"id":"266","categories":["MUSEUM","ARCHIVE UND BIBLIOTHEKEN"],"name":"Museum Charlottenburg-Wilmersdorf, Villa Oppenheim","address":"Schloßstr. 55","plz":"14059","city":"Berlin","website":"https://www.villa-oppenheim-berlin.de/museum/baudenkmaeler/schoeler-schloesschen.html"},"geometry":{"type":"Point","coordinates":[13.3151808,52.4533978]}},{"type":"Feature","properties":{"id":"267","categories":["PROJEKTRAUM/PROJEKTINITIATIVE"],"name":"Museum der Unerhörten Dinge","address":"Crellestraße 5-6","plz":"10827","city":"Berlin","website":"www.museumderunerhoertendinge.de"},"geometry":{"type":"Point","coordinates":[13.35877,52.48692]}},{"type":"Feature","properties":{"id":"268","categories":["MUSEUM"],"name":"Museum für Kommunikation","address":"Leipziger Str. 16","plz":"10117","city":"Berlin","website":"https://www.mfk-berlin.de"},"geometry":{"type":"Point","coordinates":[13.386523,52.5100104]}},{"type":"Feature","properties":{"id":"269","categories":["MUSEUM"],"name":"Museum für Naturkunde","address":"Invalidenstraße 43","plz":"10115","city":"Berlin","website":"https://www.museumfuernaturkunde.berlin/de"},"geometry":{"type":"Point","coordinates":[13.3791755,52.5305726]}},{"type":"Feature","properties":{"id":"270","categories":["PROJEKTRAUM/PROJEKTINITIATIVE"],"name":"Museum Köpenick","address":"Alter Markt 1","plz":"12555","city":"Berlin","website":"https://www.museum-treptow-koepenick.de/"},"geometry":{"type":"Point","coordinates":[13.578986,52.445262]}},{"type":"Feature","properties":{"id":"271","categories":["MUSEUM","ARCHIVE UND BIBLIOTHEKEN"],"name":"Museum Lichtenberg im Stadthaus","address":"Türrschmidtstr. 24","plz":"10317","city":"Berlin","website":"http://www.museum-lichtenberg.de/"},"geometry":{"type":"Point","coordinates":[13.4808363,52.5030134]}},{"type":"Feature","properties":{"id":"272","categories":["MUSEUM"],"name":"Museum Pankow (2. Standort)","address":"Standort Heynstr. 8","plz":"13187","city":"Berlin","website":"https://www.berlin.de/museum/3108467-2926344-museum-pankow-standort-heynstrasse-8-fru.html"},"geometry":{"type":"Point","coordinates":[13.4024174,52.5642637]}},{"type":"Feature","properties":{"id":"273","categories":["MUSEUM"],"name":"Museum Pankow im Kultur- und Bildungszentrum Sebastian Haffner","address":"Prenzlauer Allee 227/228","plz":"10405","city":"Berlin","website":"https://www.berlin.de/museum-pankow/service/kontakt-team/"},"geometry":{"type":"Point","coordinates":[13.420337,52.5332325]}},{"type":"Feature","properties":{"id":"274","categories":["MUSEUM"],"name":"Museum Reinickendorf","address":"Alt-Hermsdorf 35","plz":"13467","city":"Berlin","website":"https://www.museum-reinickendorf.de/"},"geometry":{"type":"Point","coordinates":[13.31868,52.61554]}},{"type":"Feature","properties":{"id":"276","categories":["BIBLIOTHEK"],"name":"Musikbibliothek","address":"Marzahner Promenade 55","plz":"12679","city":"Berlin","website":"https://www.berlin.de/bibliotheken-mh/bibliotheken/musikbibliothek/"},"geometry":{"type":"Point","coordinates":[13.556762,52.546921]}},{"type":"Feature","properties":{"id":"277","categories":["MUSIKSCHULE"],"name":"Musikschule Belá Bartók","address":"Am Schloßpark 20","plz":"13187","city":"Berlin","website":"https://www.berlin.de/musikschule-pankow/"},"geometry":{"type":"Point","coordinates":[13.4099298,52.5753194]}},{"type":"Feature","properties":{"id":"278","categories":["MUSIKSCHULE"],"name":"Musikschule City West","address":"Berkaer Platz 1","plz":"14199","city":"Berlin","website":"https://www.berlin.de/ba-charlottenburg-wilmersdorf/verwaltung/musikschule/"},"geometry":{"type":"Point","coordinates":[13.28801,52.4777]}},{"type":"Feature","properties":{"id":"279","categories":["MUSIK","TANZ / PERFORMANCE"],"name":"Musikschule Fanny Hensel","address":"Mathilde Jacob Platz 1","plz":"10881","city":"Berlin","website":"https://www.berlin.de/musikschule-mitte/"},"geometry":{"type":"Point","coordinates":[13.3385406,52.527057]}},{"type":"Feature","properties":{"id":"280","categories":["MUSIKSCHULE"],"name":"Musikschule Friedrichshain-Kreuzberg","address":"Mariannenplatz 2","plz":"10997","city":"Berlin","website":"https://www.ms-fk.de/musikschule.html"},"geometry":{"type":"Point","coordinates":[13.4240746,52.5038945]}},{"type":"Feature","properties":{"id":"281","categories":["MUSIKSCHULE"],"name":"Musikschule Paul Hindemith","address":"Boddinstraße 34","plz":"12040","city":"Berlin","website":"http://www.musikschuleneukoelln.de/"},"geometry":{"type":"Point","coordinates":[13.4265977,52.4797671]}},{"type":"Feature","properties":{"id":"282","categories":["MUSIKSCHULE"],"name":"Musikschule Reinickendorf","address":"Buddestr. 21","plz":"13507","city":"Berlin","website":"https://www.berlin.de/ba-reinickendorf/service/einrichtungen/musikschule/"},"geometry":{"type":"Point","coordinates":[13.28664,52.59053]}},{"type":"Feature","properties":{"id":"283","categories":["MUSIKSCHULE"],"name":"Musikschule Spandau","address":"Moritzstraße 17","plz":"13597","city":"Berlin","website":"http://www.musikschule-spandau-berlin.de/"},"geometry":{"type":"Point","coordinates":[8.2383449,50.0755201]}},{"type":"Feature","properties":{"id":"284","categories":["PROJEKTRAUM/PROJEKTINITIATIVE"],"name":"MyVisit.to","address":"Alte Schönhauser Straße 36/37","plz":"10119","city":"Berlin","website":"www.myvisit.to"},"geometry":{"type":"Point","coordinates":[13.4073464,52.5258143]}},{"type":"Feature","properties":{"id":"285","categories":["PROJEKTRAUM/PROJEKTINITIATIVE"],"name":"nationalmuseum","address":"Urbanstraße 100","plz":"10967","city":"Berlin","website":"www.thenationalmuseum.de"},"geometry":{"type":"Point","coordinates":[13.42205,52.48988]}},{"type":"Feature","properties":{"id":"286","categories":["BÜHNEN","THEATER"],"name":"Naturtheater, Volkspark Hasenheide","address":"Columbiadamm 160","plz":"10965","city":"Berlin","website":"https://www.berlin.de/kultur-und-tickets/adressen/theater/naturtheater-volkspark-4f143f17b4fc475f0b327c00.html"},"geometry":{"type":"Point","coordinates":[13.41637,52.4797]}},{"type":"Feature","properties":{"id":"287","categories":["BILDENDE KUNST"],"name":"Netzwerk freier Berliner Projekträume und –initiativen e.V.","address":"Glockenturmstraße 20 d","plz":"14055","city":"Berlin","website":"http://www.projektraeume-berlin.net/"},"geometry":{"type":"Point","coordinates":[13.22186,52.51245]}},{"type":"Feature","properties":{"id":"288","categories":["KUNST-/KULTURHÄUSER","KULTURVEREINE"],"name":"Neue Babylon Berlin GmbH","address":"Rosa-Luxemburg-Straße 30","plz":"10178","city":"Berlin","website":"http://www.babylonberlin.de/"},"geometry":{"type":"Point","coordinates":[13.4118094,52.5261038]}},{"type":"Feature","properties":{"id":"289","categories":["BILDENDE KUNST"],"name":"Neue Berliner Räume e.V.","address":"Bülowstraße 59","plz":"10783","city":"Berlin","website":"www.neueberlinerraeume.de"},"geometry":{"type":"Point","coordinates":[13.3667514,52.4955792]}},{"type":"Feature","properties":{"id":"290","categories":["KUNST-/KULTURHÄUSER","KULTURVEREINE"],"name":"Neue Gesellschaft für bildende Künste e.V. NGBK","address":"Oranienstraße 25","plz":"10999","city":"Berlin","website":"https://www.ngbk.de"},"geometry":{"type":"Point","coordinates":[13.4206563,52.5010652]}},{"type":"Feature","properties":{"id":"291","categories":["KUNST-/KULTURHÄUSER","KULTURVEREINE"],"name":"Neuer Berliner Kunstverein - NBK -","address":"Chausseestraße 128/129","plz":"10115","city":"Berlin","website":"http://www.nbk.org/"},"geometry":{"type":"Point","coordinates":[13.3860624,52.5279246]}},{"type":"Feature","properties":{"id":"292","categories":["OPERN","KONZERTHÄUSER","CHÖRE"],"name":"Neuköllner Oper","address":"Karl-Marx-Straße 131-133","plz":"12043","city":"Berlin","website":"https://www.neukoellneroper.de/"},"geometry":{"type":"Point","coordinates":[13.4394368,52.4775461]}},{"type":"Feature","properties":{"id":"293","categories":["LITERATUR"],"name":"NFLB e.V.","address":"Methfesselstr. 23-25","plz":"10965","city":"Berlin","website":"http://www.nflb.de/"},"geometry":{"type":"Point","coordinates":[13.38467,52.4876]}},{"type":"Feature","properties":{"id":"294","categories":["BÜHNEN","THEATER"],"name":"Nico and the Navigators","address":"Husemannstr. 31","plz":"10435","city":"Berlin","website":"http://www.navigators.de/"},"geometry":{"type":"Point","coordinates":[13.4176166,52.539518]}},{"type":"Feature","properties":{"id":"295","categories":["KUNSTGALERIEN","AUSSTELLUNGSRÄUME"],"name":"NON Berlin","address":"Chausseestr.11","plz":"10115","city":"Berlin","website":"www.nonberlin.com"},"geometry":{"type":"Point","coordinates":[13.385856,52.5286645]}},{"type":"Feature","properties":{"id":"296","categories":["OPERN","KONZERTHÄUSER","CHÖRE"],"name":"Novoflot","address":"Wallstraße 32c","plz":"10179","city":"Berlin","website":"http://www.novoflot.de/"},"geometry":{"type":"Point","coordinates":[13.4113669,52.5110497]}},{"type":"Feature","properties":{"id":"297","categories":["PROJEKTRAUM/PROJEKTINITIATIVE"],"name":"OKK – Organ kritischer Kunst","address":"Prinzenallee 29","plz":"13359","city":"Berlin","website":"kritische-kunst.org/de/okk-raum"},"geometry":{"type":"Point","coordinates":[13.3855341,52.5571591]}},{"type":"Feature","properties":{"id":"298","categories":["PROJEKTRAUM/PROJEKTINITIATIVE"],"name":"oMo artspace","address":"Hertzbergstr. 14","plz":"12055","city":"Berlin","website":"sarahmock.de/omo%20artspace.html"},"geometry":{"type":"Point","coordinates":[13.4481041,52.477138]}},{"type":"Feature","properties":{"id":"299","categories":["PROJEKTRAUM/PROJEKTINITIATIVE"],"name":"Open Space (Volksluxus)","address":"Altenbraker Str. 22","plz":"12051","city":"Berlin","website":"www.openspace32.de"},"geometry":{"type":"Point","coordinates":[13.4321548,52.4699766]}},{"type":"Feature","properties":{"id":"300","categories":["BILDENDE KUNST"],"name":"oqbo | raum für bild wort und ton","address":"Brunnenstrasse 63","plz":"13355","city":"Berlin","website":"http://oqbo.de/"},"geometry":{"type":"Point","coordinates":[13.39507,52.54017]}},{"type":"Feature","properties":{"id":"301","categories":["PROJEKTRAUM/PROJEKTINITIATIVE"],"name":"ORi","address":"Friedelstraße 8","plz":"12047","city":"Berlin","website":"www.ori-berlin.de"},"geometry":{"type":"Point","coordinates":[13.42819,52.48858]}},{"type":"Feature","properties":{"id":"302","categories":["BILDENDE KUNST","SONSTIGES"],"name":"Ostkreuz - Verein für Fotografie e.V.","address":"Behaimstr. 34","plz":"13086","city":"Berlin","website":"www.ostkreuz-verein.de"},"geometry":{"type":"Point","coordinates":[13.4470447,52.5505594]}},{"type":"Feature","properties":{"id":"303","categories":["BÜHNEN","THEATER"],"name":"O-TonArt Theater","address":"Kulmer Str. 20A","plz":"10783","city":"Berlin","website":"http://www.o-tonart.de/"},"geometry":{"type":"Point","coordinates":[13.3646117,52.4919733]}},{"type":"Feature","properties":{"id":"304","categories":["PROJEKTRAUM/PROJEKTINITIATIVE"],"name":"Outside Pluto","address":"Silbersteinstrasse 83","plz":"12051","city":"Berlin","website":"www.facebook.com/outsidepluto"},"geometry":{"type":"Point","coordinates":[13.4296357,52.4660178]}},{"type":"Feature","properties":{"id":"305","categories":["PROJEKTRAUM/PROJEKTINITIATIVE"],"name":"OZEAN","address":"Schleiermacherstrasse 31","plz":"10961","city":"Berlin","website":"www.ozean-berlin.com"},"geometry":{"type":"Point","coordinates":[13.399023,52.492551]}},{"type":"Feature","properties":{"id":"306","categories":["BIBLIOTHEK"],"name":"Pablo-Neruda-Bibliothek","address":"Frankfurter Allee 14 a","plz":"10247","city":"Berlin","website":"https://www.berlin.de/stadtbibliothek-friedrichshain-kreuzberg/bibliotheken/bezirkszentralbibliothek-frankfurter-allee/"},"geometry":{"type":"Point","coordinates":[13.45697,52.51457]}},{"type":"Feature","properties":{"id":"307","categories":["KUNST-/KULTURHÄUSER","KULTURVEREINE"],"name":"Panke e. V.","address":"Gerichtstr. 23","plz":"13347","city":"Berlin","website":"www.pankeculture.com"},"geometry":{"type":"Point","coordinates":[13.3725527,52.5445609]}},{"type":"Feature","properties":{"id":"308","categories":["TANZSTUDIO/ PERFORMANCE"],"name":"PAUL studios Berlin","address":"Ziegrastraße 11-13","plz":"12057","city":"Berlin","website":"http://www.paulstudiosberlin.com/"},"geometry":{"type":"Point","coordinates":[13.4592138,52.4763948]}},{"type":"Feature","properties":{"id":"309","categories":["BÜHNEN UND THEATER","BILDENDE KUNST"],"name":"Paula Reissig","address":"","plz":"","city":"Berlin","website":"http://paulareissig.hotglue.me/"},"geometry":{"type":"Point","coordinates":[0,0]}},{"type":"Feature","properties":{"id":"310","categories":["PROJEKTRAUM/PROJEKTINITIATIVE"],"name":"Pavillon im Milchhof / Ateliergemeinschaft Milchhof e. V.","address":"Schwedter Str. 232","plz":"10435","city":"Berlin","website":"www.milchhofpavillon.de"},"geometry":{"type":"Point","coordinates":[13.4051834,52.5381189]}},{"type":"Feature","properties":{"id":"311","categories":["SONSTIGES"],"name":"Performing Arts Programm/ Festival Berlin","address":"Pappelallee 15","plz":"10437","city":"Berlin","website":"https://www.performingarts-festival.de/"},"geometry":{"type":"Point","coordinates":[13.4148661,52.5430652]}},{"type":"Feature","properties":{"id":"312","categories":["OPERN","KONZERTHÄUSER","CHÖRE"],"name":"Philharmonischer Chor e.V.","address":"Beyreuther Straße 8","plz":"10787","city":"Berlin","website":"https://www.philharmonischer-chor.de/"},"geometry":{"type":"Point","coordinates":[13.3438712,52.5027045]}},{"type":"Feature","properties":{"id":"313","categories":["DARSTELLENDE KUNST"],"name":"Platypus Theater","address":"Markgrafenstraße 87","plz":"10969","city":"Berlin","website":"https://platypus-theater.de/"},"geometry":{"type":"Point","coordinates":[13.39458,52.50333]}},{"type":"Feature","properties":{"id":"314","categories":["PROJEKTRAUM/PROJEKTINITIATIVE"],"name":"PremArts Berlin","address":"Oppelner Str. 34","plz":"10997","city":"Berlin","website":"www.premarts.de"},"geometry":{"type":"Point","coordinates":[13.4399324,52.4985312]}},{"type":"Feature","properties":{"id":"315","categories":["PROJEKTRAUM/PROJEKTINITIATIVE"],"name":"PRIMA CENTER BERLIN","address":"Biesentalerstr. 24","plz":"13359","city":"Berlin","website":"www.prima-center.net/PCB.htm"},"geometry":{"type":"Point","coordinates":[13.386067,52.5575216]}},{"type":"Feature","properties":{"id":"316","categories":["BÜHNEN","THEATER"],"name":"Prime Time Theater","address":"Müllerstraße 163","plz":"13353","city":"Berlin","website":"http://primetimetheater.de/"},"geometry":{"type":"Point","coordinates":[13.3635035,52.5436459]}},{"type":"Feature","properties":{"id":"317","categories":["PROJEKTRAUM/PROJEKTINITIATIVE"],"name":"Prolog","address":"Lehderstraße 119","plz":"13086","city":"Berlin","website":"www.prolog-zeichnung-und-text.de"},"geometry":{"type":"Point","coordinates":[13.4466998,52.5475254]}},{"type":"Feature","properties":{"id":"318","categories":["KUNST-/KULTURHÄUSER","KULTURVEREINE"],"name":"Radialsystem V","address":"Holzmarktstraße 33","plz":"10243","city":"Berlin","website":"https://radialsystem.de/"},"geometry":{"type":"Point","coordinates":[13.42873,52.51057]}},{"type":"Feature","properties":{"id":"319","categories":["BÜHNEN","THEATER"],"name":"RambaZamba e.V.","address":"Schönhauser Allee 36-39","plz":"10435","city":"Berlin","website":"https://rambazamba-theater.de/"},"geometry":{"type":"Point","coordinates":[13.4127573,52.5383047]}},{"type":"Feature","properties":{"id":"320","categories":["BÜHNEN","THEATER"],"name":"Ratibortheater","address":"Cuvrystraße 20a","plz":"10997","city":"Berlin","website":"http://www.ratibortheater.de/"},"geometry":{"type":"Point","coordinates":[13.4434002,52.4974949]}},{"type":"Feature","properties":{"id":"321","categories":["BÜHNEN","THEATER"],"name":"Ratz Fatz","address":"Schnellerstr. 81","plz":"12439","city":"Berlin","website":"http://ratz-fatz.kulturfenster-berlin.de/"},"geometry":{"type":"Point","coordinates":[13.5321832,52.4519778]}},{"type":"Feature","properties":{"id":"322","categories":["PROJEKTRAUM/PROJEKTINITIATIVE"],"name":"Raum für drastische Maßnahmen","address":"Oderstr. 34","plz":"10247","city":"Berlin","website":"www.rpunkt.org"},"geometry":{"type":"Point","coordinates":[13.4728089,52.509315]}},{"type":"Feature","properties":{"id":"323","categories":["PROJEKTRAUM/PROJEKTINITIATIVE"],"name":"RAUM FÜR ZWECKFREIHEIT","address":"Adalbertstraße 71","plz":"10997","city":"Berlin","website":"www.zweckfreiheit.de"},"geometry":{"type":"Point","coordinates":[13.4213367,52.5043789]}},{"type":"Feature","properties":{"id":"324","categories":["PROJEKTRAUM/PROJEKTINITIATIVE"],"name":"Raumerweiterungshalle","address":"Markgrafendamm 24c","plz":"10245","city":"Berlin","website":"www.raumerweiterungshalle.net"},"geometry":{"type":"Point","coordinates":[13.4663169,52.502559]}},{"type":"Feature","properties":{"id":"325","categories":["PROJEKTRAUM/PROJEKTINITIATIVE"],"name":"RaumlaborBerlin","address":"Am Flutgraben 3","plz":"12435","city":"Berlin","website":"www.raumlabor.net"},"geometry":{"type":"Point","coordinates":[13.4516979,52.4970977]}},{"type":"Feature","properties":{"id":"326","categories":["MUSEUM"],"name":"Regionalmuseum/ Mitte Museum","address":"Pankstr. 47","plz":"13357","city":"Berlin","website":"http://www.mittemuseum.de/"},"geometry":{"type":"Point","coordinates":[13.3800411,52.5511861]}},{"type":"Feature","properties":{"id":"327","categories":["BÜHNEN","THEATER"],"name":"Renaissance Theater","address":"Knesebeckstraße 100","plz":"10623","city":"Berlin","website":"http://www.renaissance-theater.de/"},"geometry":{"type":"Point","coordinates":[13.3234448,52.5103625]}},{"type":"Feature","properties":{"id":"328","categories":["BÜHNEN","THEATER"],"name":"Rimini Protokoll","address":"Tempelhofer Ufer 10","plz":"10963","city":"Berlin","website":"http://www.rimini-protokoll.de/website/de/"},"geometry":{"type":"Point","coordinates":[13.3861327,52.4980786]}},{"type":"Feature","properties":{"id":"329","categories":["PROJEKTRAUM/PROJEKTINITIATIVE"],"name":"rosalux","address":"Wriezener Straße 12","plz":"13359","city":"Berlin","website":"www.rosalux.com"},"geometry":{"type":"Point","coordinates":[13.38947,52.5574]}},{"type":"Feature","properties":{"id":"330","categories":["KUNSTGALERIEN","AUSSTELLUNGSRÄUME"],"name":"Ruine der Künste","address":"Hittorfstraße 5","plz":"14195","city":"Berlin","website":"http://home.snafu.de/ruine-kuenste.berlin/fenster.htm"},"geometry":{"type":"Point","coordinates":[13.28552,52.45178]}},{"type":"Feature","properties":{"id":"331","categories":["OPERN","KONZERTHÄUSER","CHÖRE"],"name":"Rundfunk-Orchester und -Chöre GmbH","address":"Charlottenstraße 56","plz":"10117","city":"Berlin","website":"https://www.roc-berlin.de/content/home/index_ger.html"},"geometry":{"type":"Point","coordinates":[13.3910945,52.513363]}},{"type":"Feature","properties":{"id":"332","categories":[],"name":"Sammlungsdinge","address":"","plz":"","city":"","website":"www.sammlungsdinge.de"},"geometry":{"type":"Point","coordinates":[0,0]}},{"type":"Feature","properties":{"id":"333","categories":["TANZSTUDIO/ PERFORMANCE"],"name":"Sasha Waltz & Guests (hängen mit Sophiensaelen etc. zusammen)","address":"Sophienstraße 3","plz":"10178","city":"Berlin","website":"https://www.sashawaltz.de/"},"geometry":{"type":"Point","coordinates":[13.4013403,52.5253646]}},{"type":"Feature","properties":{"id":"334","categories":["PROJEKTRAUM/PROJEKTINITIATIVE"],"name":"SAVVY Contemporary","address":"Plantagenstraße 31","plz":"13347","city":"Berlin","website":"www.savvy-contemporary.com"},"geometry":{"type":"Point","coordinates":[13.3665865,52.5462286]}},{"type":"Feature","properties":{"id":"335","categories":["BÜHNEN","THEATER"],"name":"Schaubühne am Lehniner Platz","address":"Kurfürstendamm 153","plz":"10709","city":"Berlin","website":"https://www.schaubuehne.de/"},"geometry":{"type":"Point","coordinates":[13.302262,52.498681]}},{"type":"Feature","properties":{"id":"336","categories":["BIBLIOTHEK"],"name":"Schiller-Bibliothek","address":"Mü̈llerstraße 149","plz":"13353","city":"Berlin","website":"https://www.berlin.de/stadtbibliothek-mitte/bibliotheken/schiller-bibliothek-mit-hugojugendmedienetage/"},"geometry":{"type":"Point","coordinates":[13.35766,52.5469]}},{"type":"Feature","properties":{"id":"337","categories":["MUSEUM","LITERATUR","BILDENDE KUNST","MUSIK"],"name":"Schloss Biesdorf","address":"Alt Biesdorf 55","plz":"12683","city":"Berlin","website":"http://schlossbiesdorf.de/"},"geometry":{"type":"Point","coordinates":[13.5576429,52.5098114]}},{"type":"Feature","properties":{"id":"338","categories":["BÜHNEN","THEATER"],"name":"Schlosspark Theater","address":"Schloßstraße 48","plz":"12165","city":"Berlin","website":"https://www.schlossparktheater.de/"},"geometry":{"type":"Point","coordinates":[13.3180107,52.4546907]}},{"type":"Feature","properties":{"id":"339","categories":["BÜHNEN","THEATER"],"name":"Schlossplatztheater","address":"Alt-Köpenick 31","plz":"12555","city":"Berlin","website":"https://schlossplatztheater.de/"},"geometry":{"type":"Point","coordinates":[13.57437,52.44506]}},{"type":"Feature","properties":{"id":"340","categories":["JUGEND-KULTURORGANISATION"],"name":"Schmetterlingshorst","address":"Zum Schmetterlingshorst 2","plz":"12559","city":"Berlin","website":"http://www.schmetterlingshorst.de/"},"geometry":{"type":"Point","coordinates":[13.6099181,52.4122046]}},{"type":"Feature","properties":{"id":"341","categories":["MUSEUM"],"name":"Schoelerschlößchen","address":"Wilhelmsaue 126","plz":"10715","city":"Berlin","website":"https://www.villa-oppenheim-berlin.de/museum/baudenkmaeler/schoeler-schloesschen.html"},"geometry":{"type":"Point","coordinates":[13.3267419,52.4850266]}},{"type":"Feature","properties":{"id":"342","categories":["MUSEUM"],"name":"Schöneberg Museum/Jugend Museum","address":"Hauptstr. 40-42","plz":"10827","city":"Berlin","website":"https://www.museen-tempelhof-schoeneberg.de/jugendmuseum.html"},"geometry":{"type":"Point","coordinates":[13.3509767,52.4839118]}},{"type":"Feature","properties":{"id":"343","categories":["MUSIKSCHULE"],"name":"Schostakowitsch-Musikschule","address":"Paul-Junius Str. 71","plz":"10369","city":"Berlin","website":"http://www.schostakowitsch-musikschule.de/"},"geometry":{"type":"Point","coordinates":[13.47802,52.5285]}},{"type":"Feature","properties":{"id":"344","categories":["BIBLIOTHEK"],"name":"Schulbibliothek","address":"Blücherstr. 46-47","plz":"10961","city":"Berlin","website":"https://www.berlin.de/stadtbibliothek-friedrichshain-kreuzberg/bibliotheken/schulbibliothek/"},"geometry":{"type":"Point","coordinates":[13.4044907,52.4916474]}},{"type":"Feature","properties":{"id":"345","categories":["KUNST-/KULTURHÄUSER","KULTURVEREINE"],"name":"Schwartzsche Villa","address":"Grunewaldstraße 55","plz":"12165","city":"Berlin","website":"http://www.kultur-steglitz-zehlendorf.de/schwartzsche_villa.html"},"geometry":{"type":"Point","coordinates":[13.3384075,52.4882476]}},{"type":"Feature","properties":{"id":"346","categories":["MUSEUM"],"name":"Schwules Museum","address":"Lützowstraße 73","plz":"10785","city":"Berlin","website":"https://www.schwulesmuseum.de/"},"geometry":{"type":"Point","coordinates":[13.3579061,52.5042832]}},{"type":"Feature","properties":{"id":"347","categories":["PROJEKTRAUM/PROJEKTINITIATIVE"],"name":"SCOTTY","address":"Oranienstr. 46","plz":"10969","city":"Berlin","website":"www.scottyenterprises.de"},"geometry":{"type":"Point","coordinates":[13.4139429,52.50289]}},{"type":"Feature","properties":{"id":"348","categories":["PROJEKTRAUM/PROJEKTINITIATIVE"],"name":"Serendipity Gallery","address":"Winsstraße 24","plz":"10405","city":"Berlin","website":"www.serendipity-gallery.de"},"geometry":{"type":"Point","coordinates":[13.4267299,52.53476]}},{"type":"Feature","properties":{"id":"349","categories":["BÜHNEN","THEATER"],"name":"SheShePop","address":"Mariannenpl. 2","plz":"10997","city":"Berlin","website":"http://www.sheshepop.de/"},"geometry":{"type":"Point","coordinates":[13.4240746,52.5038945]}},{"type":"Feature","properties":{"id":"350","categories":["KUNST-/KULTURHÄUSER","KULTURVEREINE"],"name":"silent green Kulturproduktionen GmbH & Co. KG","address":"Gerichtstraße 35","plz":"13347","city":"Berlin","website":"https://www.silent-green.net/"},"geometry":{"type":"Point","coordinates":[13.3665422,52.5450039]}},{"type":"Feature","properties":{"id":"351","categories":["PROJEKTRAUM/PROJEKTINITIATIVE"],"name":"singuhr sound gallery","address":"Danziger Straße 101","plz":"10405","city":"Berlin","website":"www.singuhr.de"},"geometry":{"type":"Point","coordinates":[13.4307639,52.537467]}},{"type":"Feature","properties":{"id":"352","categories":["SONSTIGES"],"name":"SinnSinn","address":"Großbeerenstr. 70","plz":"10963","city":"Berlin","website":"www.sinnsinn.com"},"geometry":{"type":"Point","coordinates":[13.38447,52.49554]}},{"type":"Feature","properties":{"id":"353","categories":["PROJEKTRAUM/PROJEKTINITIATIVE"],"name":"SOMA ART SPACE BERLIN","address":"Liegnitzer str. 35","plz":"10999","city":"Berlin","website":"http://somaartspace.de/press.html"},"geometry":{"type":"Point","coordinates":[13.43594,52.4944]}},{"type":"Feature","properties":{"id":"354","categories":["BILDENDE KUNST","TANZ / PERFORMANCE"],"name":"SomoS Art House","address":"Kottbusser Damm 95","plz":"10967","city":"Berlin","website":"www.somos-arts.org"},"geometry":{"type":"Point","coordinates":[13.4219165,52.4939877]}},{"type":"Feature","properties":{"id":"355","categories":["BÜHNEN","THEATER"],"name":"Sonnenuhr e.V.","address":"Schönhauser Allee 36-39","plz":"10435","city":"Berlin","website":"https://rambazamba-theater.de/"},"geometry":{"type":"Point","coordinates":[13.4127573,52.5383047]}},{"type":"Feature","properties":{"id":"357","categories":["BÜHNEN","THEATER"],"name":"Sophiensæle","address":"Sophienstraße 18","plz":"10178","city":"Berlin","website":"http://www.sophiensaele.com/"},"geometry":{"type":"Point","coordinates":[13.4011836,52.5256399]}},{"type":"Feature","properties":{"id":"358","categories":["PROJEKTRAUM/PROJEKTINITIATIVE"],"name":"SOUTERRAIN","address":"Sophienstraße 21","plz":"10178","city":"Berlin","website":"www.souterrain-berlin.de"},"geometry":{"type":"Point","coordinates":[9.1724464,48.7722961]}},{"type":"Feature","properties":{"id":"359","categories":["PROJEKTRAUM/PROJEKTINITIATIVE"],"name":"SOX","address":"Oranienstraße 175","plz":"10999","city":"Berlin","website":"www.sox-berlin.com"},"geometry":{"type":"Point","coordinates":[13.4186659,52.5012346]}},{"type":"Feature","properties":{"id":"360","categories":["PROJEKTRAUM/PROJEKTINITIATIVE"],"name":"Spinner & Weber","address":"Brüsselerstr.37","plz":"13353","city":"Berlin","website":"spinnerundweber.de"},"geometry":{"type":"Point","coordinates":[13.3488692,52.5461466]}},{"type":"Feature","properties":{"id":"361","categories":["PROJEKTRAUM/PROJEKTINITIATIVE"],"name":"Spor Klübü","address":"Freienwalder Straße 31","plz":"13359","city":"Berlin","website":"www.koloniewedding.de/sporkluebue/"},"geometry":{"type":"Point","coordinates":[13.49297,52.54405]}},{"type":"Feature","properties":{"id":"362","categories":["KUNST-/KULTURHÄUSER","KULTURVEREINE"],"name":"St. Elisabeth-Kirche","address":"Invalidenstr. 4a","plz":"10115","city":"Berlin","website":"https://www.elisabeth.berlin/"},"geometry":{"type":"Point","coordinates":[13.39679,52.53272]}},{"type":"Feature","properties":{"id":"364","categories":["BÜHNEN UND THEATER"],"name":"Staatsballett Berlin","address":"Richard-Wagner Straße 10/ Bismarckstraße 110","plz":"10585/10625","city":"Berlin","website":"https://www.staatsballett-berlin.de/de/"},"geometry":{"type":"Point","coordinates":[13.3075637,52.5126976]}},{"type":"Feature","properties":{"id":"365","categories":["OPERN","KONZERTHÄUSER","CHÖRE"],"name":"Staatsoper Unter den Linden","address":"Unter den Linden 7","plz":"10117","city":"Berlin","website":"https://www.staatsoper-berlin.de/de/"},"geometry":{"type":"Point","coordinates":[13.39433,52.5168]}},{"type":"Feature","properties":{"id":"366","categories":["MUSEUM"],"name":"Stadtmuseum Berlin","address":"Poststraße 13/14","plz":"10178","city":"Berlin","website":"https://www.stadtmuseum.de/"},"geometry":{"type":"Point","coordinates":[13.4069407,52.5161294]}},{"type":"Feature","properties":{"id":"367","categories":["BIBLIOTHEK"],"name":"Stadtteil- und Schulbibliothek Rudow","address":"Bildhauerweg 9","plz":"12355","city":"Berlin","website":"https://www.berlin.de/stadtbibliothek-neukoelln/bibliotheken/stadtteilbibliothek-rudow/"},"geometry":{"type":"Point","coordinates":[13.48999,52.41759]}},{"type":"Feature","properties":{"id":"368","categories":["BIBLIOTHEK"],"name":"Stadtteilbibliothek Adlershof „Stefan Heym Bibliothek“","address":"Dörpfeldstraße 56","plz":"12489","city":"Berlin","website":"https://www.berlin.de/stadtbibliothek-treptow-koepenick/bibliotheken/adlershof/"},"geometry":{"type":"Point","coordinates":[13.55008,52.43889]}},{"type":"Feature","properties":{"id":"369","categories":["BIBLIOTHEK"],"name":"Stadtteilbibliothek Altglienicke","address":"Ortolfstraße 182 – 184","plz":"12524","city":"Berlin","website":"https://www.berlin.de/stadtbibliothek-treptow-koepenick/bibliotheken/altglienicke/"},"geometry":{"type":"Point","coordinates":[13.5286031,52.4032619]}},{"type":"Feature","properties":{"id":"370","categories":["BIBLIOTHEK"],"name":"Stadtteilbibliothek Alt-Treptow „Manfred-Bofinger-Bibliothek“","address":"Karl-Kunger-Straße 30","plz":"12435","city":"Berlin","website":"https://www.berlin.de/stadtbibliothek-treptow-koepenick/bibliotheken/alt-treptow/"},"geometry":{"type":"Point","coordinates":[13.4506911,52.4888165]}},{"type":"Feature","properties":{"id":"371","categories":["BIBLIOTHEK"],"name":"Stadtteilbibliothek Britz-Süd","address":"Gutschmidtstraße 33","plz":"12359","city":"Berlin","website":"https://www.berlin.de/stadtbibliothek-neukoelln/bibliotheken/stadtteilbibliothek-britz-sued/"},"geometry":{"type":"Point","coordinates":[13.4460327,52.4367161]}},{"type":"Feature","properties":{"id":"372","categories":["BIBLIOTHEK"],"name":"Stadtteilbibliothek Buch","address":"Wiltbergstraße 19–23","plz":"13125","city":"Berlin","website":"https://www.berlin.de/stadtbibliothek-pankow/bibliotheken/stadtteilbibliothek-buch/"},"geometry":{"type":"Point","coordinates":[13.4942881,52.6356478]}},{"type":"Feature","properties":{"id":"373","categories":["BIBLIOTHEK"],"name":"Stadtteilbibliothek Erich Weinert","address":"Helene-Weigel-Platz 4","plz":"12681","city":"Berlin","website":"https://www.berlin.de/bibliotheken-mh/bibliotheken/stadtteilbibliothek-erich-weinert/"},"geometry":{"type":"Point","coordinates":[13.5382341,52.5281457]}},{"type":"Feature","properties":{"id":"374","categories":["BIBLIOTHEK"],"name":"Stadtteilbibliothek Falkenhagener Feld","address":"Westerwaldstraße 9","plz":"13589","city":"Berlin","website":"https://www.berlin.de/stadtbibliothek-spandau/bibliotheken/falkenhagener-feld/artikel.182168.php"},"geometry":{"type":"Point","coordinates":[7.1732929,50.7586002]}},{"type":"Feature","properties":{"id":"375","categories":["BIBLIOTHEK"],"name":"Stadtteilbibliothek Friedrichshagen „Johannes-Bobrowski-Bibliothek“","address":"Peter-Hille-Straße 1","plz":"12587","city":"Berlin","website":"https://www.berlin.de/stadtbibliothek-treptow-koepenick/bibliotheken/friedrichshagen/"},"geometry":{"type":"Point","coordinates":[13.6214304,52.4548604]}},{"type":"Feature","properties":{"id":"376","categories":["BIBLIOTHEK"],"name":"Stadtteilbibliothek Frohnau","address":"Fuchssteinerweg 17","plz":"13465","city":"Berlin","website":"https://www.berlin.de/stadtbibliothek-reinickendorf/bibliotheken/stadtteilbibliothek-frohnau/artikel.336740.php"},"geometry":{"type":"Point","coordinates":[13.2951501,52.6354477]}},{"type":"Feature","properties":{"id":"377","categories":["BIBLIOTHEK"],"name":"Stadtteilbibliothek Halemweg","address":"Halemweg 18","plz":"13627","city":"Berlin","website":"https://www.wir-bieten-vielfalt-einen-ort.de/stadtteilbibliothek-halemweg/"},"geometry":{"type":"Point","coordinates":[13.28698,52.53772]}},{"type":"Feature","properties":{"id":"378","categories":["BIBLIOTHEK"],"name":"Stadtteilbibliothek Haselhorst","address":"Gartenfelder Straße 104","plz":"13599","city":"Berlin","website":"https://www.berlin.de/stadtbibliothek-spandau/bibliotheken/haselhorst/stadtteilbibliothek-haselhorst-182097.php"},"geometry":{"type":"Point","coordinates":[13.2391798,52.5429465]}},{"type":"Feature","properties":{"id":"379","categories":["BIBLIOTHEK"],"name":"Stadtteilbibliothek Heerstrasse","address":"Obstallee 22f","plz":"13593","city":"Berlin","website":"https://www.berlin.de/stadtbibliothek-spandau/bibliotheken/heerstrasse/stadtteilbibliothek-heerstrasse-182099.php"},"geometry":{"type":"Point","coordinates":[13.1652726,52.5222515]}},{"type":"Feature","properties":{"id":"380","categories":["BIBLIOTHEK"],"name":"Stadtteilbibliothek Heinrich von Kleist","address":"Havemannstraße 17 b","plz":"12689","city":"Berlin","website":"https://www.berlin.de/bibliotheken-mh/bibliotheken/stadtteilbibliothek-heinrich-von-kleist/"},"geometry":{"type":"Point","coordinates":[13.5727299,52.5687]}},{"type":"Feature","properties":{"id":"381","categories":["BIBLIOTHEK"],"name":"Stadtteilbibliothek im Gemeinschaftshaus","address":"Bat-Yam-Platz 1","plz":"12353","city":"Berlin","website":"https://www.berlin.de/stadtbibliothek-neukoelln/bibliotheken/stadtteilbibliothek-im-gemeinschaftshaus/"},"geometry":{"type":"Point","coordinates":[13.4614583,52.425502]}},{"type":"Feature","properties":{"id":"382","categories":["BIBLIOTHEK"],"name":"Stadtteilbibliothek Karow","address":"Achillesstraße 77","plz":"13125","city":"Berlin","website":"https://www.berlin.de/stadtbibliothek-pankow/bibliotheken/stadtteilbibliothek-karow/"},"geometry":{"type":"Point","coordinates":[13.491927,52.6165571]}},{"type":"Feature","properties":{"id":"383","categories":["BIBLIOTHEK"],"name":"Stadtteilbibliothek Kaulsdorf Nord","address":"Cecilienplatz 12","plz":"12619","city":"Berlin","website":"https://www.berlin.de/bibliotheken-mh/bibliotheken/stadtteilbibliothek-kaulsdorf-nord/"},"geometry":{"type":"Point","coordinates":[13.5898028,52.5217012]}},{"type":"Feature","properties":{"id":"384","categories":["BIBLIOTHEK"],"name":"Stadtteilbibliothek Lankwitz","address":"Bruchwitzstraße 37","plz":"12247","city":"Berlin","website":"https://www.berlin.de/stadtbibliothek-steglitz-zehlendorf/bibliotheken/stadtteilbibliothek-lankwitz/"},"geometry":{"type":"Point","coordinates":[13.3505846,52.4361117]}},{"type":"Feature","properties":{"id":"385","categories":["BIBLIOTHEK"],"name":"Stadtteilbibliothek Mahlsdorf","address":"Alt Mahlsdorf 24–26","plz":"12623","city":"Berlin","website":"https://www.berlin.de/bibliotheken-mh/bibliotheken/stadtteilbibliothek-mahlsdorf/"},"geometry":{"type":"Point","coordinates":[13.6103352,52.5055294]}},{"type":"Feature","properties":{"id":"386","categories":["BIBLIOTHEK"],"name":"Stadtteilbibliothek Marienfelde Medienhaus Marienfelde","address":"Marienfelder Allee 107/109","plz":"12277","city":"Berlin","website":"https://www.berlin.de/stadtbibliothek-tempelhof-schoeneberg/bibliotheken/stadtteilbibliothek-marienfelde/"},"geometry":{"type":"Point","coordinates":[13.36658,52.41684]}},{"type":"Feature","properties":{"id":"387","categories":["BIBLIOTHEK"],"name":"Stadtteilbibliothek Reinickendorf-West","address":"Auguste-Viktoria-Allee 29–31","plz":"13403","city":"Berlin","website":"https://www.berlin.de/stadtbibliothek-reinickendorf/bibliotheken/stadtteilbibliothek-reinickendorf-west/artikel.336767.php"},"geometry":{"type":"Point","coordinates":[13.31537,52.57138]}},{"type":"Feature","properties":{"id":"389","categories":["KUNSTGALERIEN","AUSSTELLUNGSRÄUME"],"name":"State of the ART","address":"Mansteinstrasse 2","plz":"10783","city":"Berlin","website":"www.state-of-the-art-berlin.com"},"geometry":{"type":"Point","coordinates":[13.3666947,52.4929353]}},{"type":"Feature","properties":{"id":"390","categories":["SONSTIGES"],"name":"STATE Studio","address":"Hauptstr. 3","plz":"10827","city":"Berlin","website":"https://state-studio.com/"},"geometry":{"type":"Point","coordinates":[13.3596119,52.4901337]}},{"type":"Feature","properties":{"id":"391","categories":["BILDENDE KUNST","TANZ / PERFORMANCE"],"name":"Stephanie Hanna","address":"Dieffenbachstr. 35","plz":"10967","city":"Berlin","website":"http://www.stephaniehanna.de/de/"},"geometry":{"type":"Point","coordinates":[13.4191531,52.4917379]}},{"type":"Feature","properties":{"id":"392","categories":["MUSEUM","GEDENKSTÄTTEN"],"name":"Stiftung Berliner Mauer","address":"Bernauer Str. 111","plz":"13355","city":"Berlin","website":"https://www.stiftung-berliner-mauer.de/de/"},"geometry":{"type":"Point","coordinates":[13.38943,52.53523]}},{"type":"Feature","properties":{"id":"393","categories":["OPERN","KONZERTHÄUSER","CHÖRE"],"name":"Stiftung Berliner Philharmoniker","address":"Herbert-von-Karajan-Straße 1","plz":"10785","city":"Berlin","website":"https://www.berliner-philharmoniker.de/"},"geometry":{"type":"Point","coordinates":[13.3699181,52.5098485]}},{"type":"Feature","properties":{"id":"394","categories":["MUSEUM"],"name":"Stiftung Bröhan-Museum","address":"Schloßstraße 1a","plz":"14059","city":"Berlin","website":"http://www.broehan-museum.de/"},"geometry":{"type":"Point","coordinates":[13.3264879,52.4648378]}},{"type":"Feature","properties":{"id":"395","categories":["MUSEUM","GEDENKSTÄTTEN"],"name":"Stiftung Denkmal für die ermordeten Juden Europas","address":"Georgenstraße 23","plz":"10117","city":"Berlin","website":"https://www.stiftung-denkmal.de"},"geometry":{"type":"Point","coordinates":[13.3866422,52.5194438]}},{"type":"Feature","properties":{"id":"396","categories":["MUSEUM"],"name":"Stiftung Deutsches Technikmuseum Berlin","address":"Trebbiner Str. 9","plz":"10963","city":"Berlin","website":"https://sdtb.de/stiftung/startseite/"},"geometry":{"type":"Point","coordinates":[13.3768443,52.4986278]}},{"type":"Feature","properties":{"id":"397","categories":["MUSEUM"],"name":"Stiftung Domäne Dahlem","address":"Königin-Luise-Straße 49","plz":"14195","city":"Berlin","website":"http://www.domaene-dahlem.de/home/"},"geometry":{"type":"Point","coordinates":[13.2892486,52.4591264]}},{"type":"Feature","properties":{"id":"398","categories":["MUSEUM"],"name":"Stiftung Georg-Kolbe-Museum","address":"Sensburger Allee 25","plz":"14055","city":"Berlin","website":"https://www.georg-kolbe-museum.de/"},"geometry":{"type":"Point","coordinates":[13.2548428,52.5099354]}},{"type":"Feature","properties":{"id":"399","categories":["SONSTIGES"],"name":"Stiftung Preußischer Kulturbesitz","address":"Von-der-Heydt-Str. 16-18","plz":"10785","city":"Berlin","website":"https://www.preussischer-kulturbesitz.de"},"geometry":{"type":"Point","coordinates":[13.3551828,52.5067062]}},{"type":"Feature","properties":{"id":"400","categories":["GEDENKSTÄTTE"],"name":"Stiftung Topographie des Terrors","address":"Niederkirchnerstraße 8","plz":"10963","city":"Berlin","website":"http://www.topographie.de/topographie-des-terrors/stiftung/"},"geometry":{"type":"Point","coordinates":[13.3834565,52.5067418]}},{"type":"Feature","properties":{"id":"401","categories":["BIBLIOTHEK","GRAPHOTHEK"],"name":"Stiftung Zentral- und Landesbibliothek Berlin","address":"Breite Straße 30-36","plz":"10178","city":"Berlin","website":"https://www.zlb.de/"},"geometry":{"type":"Point","coordinates":[13.40446,52.51534]}},{"type":"Feature","properties":{"id":"402","categories":["BÜHNEN","THEATER"],"name":"Studio Verlin (gehört zu Constanza Macras - DorkyPark)","address":"Klosterstraße 44","plz":"10179","city":"Berlin","website":"http://www.dorkypark.org/site/studio-verlin/"},"geometry":{"type":"Point","coordinates":[13.4117099,52.5178019]}},{"type":"Feature","properties":{"id":"403","categories":["BÜHNEN","THEATER"],"name":"Studio Я im Maxim Gorki Theater","address":"Hinter dem Gießhaus 2","plz":"10117","city":"Berlin","website":"https://gorki.de/de/node/1484"},"geometry":{"type":"Point","coordinates":[13.3962344,52.5190309]}},{"type":"Feature","properties":{"id":"404","categories":["PROJEKTRAUM/PROJEKTINITIATIVE"],"name":"Supalife","address":"Raumerstrasse 40","plz":"10437","city":"Berlin","website":"http://supalife.de/"},"geometry":{"type":"Point","coordinates":[13.4162718,52.5439016]}},{"type":"Feature","properties":{"id":"405","categories":["PROJEKTRAUM/PROJEKTINITIATIVE"],"name":"super bien!","address":"Schwedterstr. 232","plz":"10435","city":"Berlin","website":"www.superbien.de"},"geometry":{"type":"Point","coordinates":[13.4051834,52.5381189]}},{"type":"Feature","properties":{"id":"406","categories":["BIBLIOTHEK"],"name":"Tadtteilbibliothek Kladow","address":"Sakrower Landstraße 2","plz":"14089","city":"Berlin","website":"https://www.berlin.de/stadtbibliothek-spandau/bibliotheken/kladow/stadtteilbibliothek-kladow-182136.php"},"geometry":{"type":"Point","coordinates":[13.1430328,52.4533447]}},{"type":"Feature","properties":{"id":"407","categories":["BÜHNEN","THEATER"],"name":"TAK Theater im Aufbau Haus","address":"Prinzenstraße 85 F","plz":"10969","city":"Berlin","website":"http://tak-berlin.de/"},"geometry":{"type":"Point","coordinates":[13.409881,52.503197]}},{"type":"Feature","properties":{"id":"408","categories":["PROJEKTRAUM/PROJEKTINITIATIVE"],"name":"Takt Kunstprojektraum","address":"Neue Hochstraße 8","plz":"13347","city":"Berlin","website":"www.taktberlin.org"},"geometry":{"type":"Point","coordinates":[13.3757996,52.5398023]}},{"type":"Feature","properties":{"id":"409","categories":["PROJEKTRAUM/PROJEKTINITIATIVE"],"name":"tamtamART","address":"Weichselstr.8","plz":"10247","city":"Berlin","website":"www.tamtamart.de"},"geometry":{"type":"Point","coordinates":[13.43333,52.48434]}},{"type":"Feature","properties":{"id":"410","categories":["SONSTIGES"],"name":"Tanz ist KLASSE! e.V.; c/o Staatsballett Berlin","address":"Richard-Wagner-Str. 10","plz":"10585","city":"Berlin","website":"https://www.staatsballett-berlin.de/tanz-ist-klasse"},"geometry":{"type":"Point","coordinates":[13.3084693,52.5127766]}},{"type":"Feature","properties":{"id":"411","categories":["TANZSTUDIO/ PERFORMANCE"],"name":"Tanzbüro Berlin","address":"Uferstr. 23","plz":"13357","city":"Berlin","website":"http://www.tanzraumberlin.de/"},"geometry":{"type":"Point","coordinates":[13.3748991,52.5518019]}},{"type":"Feature","properties":{"id":"412","categories":["TANZSTUDIO/ PERFORMANCE"],"name":"Tanzcompanie Rubato","address":"Karl-Kunger Str. 13","plz":"12435","city":"Berlin","website":"http://www.tanzcompagnie-rubato.de/"},"geometry":{"type":"Point","coordinates":[13.44708,52.49115]}},{"type":"Feature","properties":{"id":"413","categories":["TANZSTUDIO/ PERFORMANCE"],"name":"Tanzfabrik Berlin e.V.","address":"Uferstraße 23","plz":"13357","city":"Berlin","website":"https://www.tanzfabrik-berlin.de/"},"geometry":{"type":"Point","coordinates":[13.3748991,52.5518019]}},{"type":"Feature","properties":{"id":"414","categories":["TANZSTUDIO/ PERFORMANCE"],"name":"Tanztage Berlin","address":"Sophienstraße 18","plz":"10178","city":"Berlin","website":"https://www.sophiensaele.com/festival.php?IDfestival=119"},"geometry":{"type":"Point","coordinates":[13.4011836,52.5256399]}},{"type":"Feature","properties":{"id":"415","categories":["MUSEUM"],"name":"Tatwerk Berlin","address":"Hasenheide 9","plz":"10967","city":"Berlin","website":"https://www.tatwerk-berlin.de/de/"},"geometry":{"type":"Point","coordinates":[13.4223709,52.4874443]}},{"type":"Feature","properties":{"id":"416","categories":["MUSEUM"],"name":"Tempelhof Museum & Galerie im Tempelhof Museum","address":"Alt-Mariendorf 43","plz":"12107","city":"Berlin","website":"https://www.museen-tempelhof-schoeneberg.de/uebersicht-tempelhof-museum.html"},"geometry":{"type":"Point","coordinates":[13.3854428,52.4395674]}},{"type":"Feature","properties":{"id":"417","categories":["BÜHNEN UND THEATER","MUSEUM","ARCHIVE UND BIBLIOTHEKEN","GEDENKSTÄTTEN","MUSIK"],"name":"Tempelhof Projekt GmbH","address":"Columbiadamm 10/A2","plz":"12101","city":"Berlin","website":"https://www.thf-berlin.de/tempelhof-projekt-gmbh/"},"geometry":{"type":"Point","coordinates":[13.3912285,52.4840447]}},{"type":"Feature","properties":{"id":"418","categories":["PROJEKTRAUM/PROJEKTINITIATIVE"],"name":"tête","address":"Schönhauser Allee 161A","plz":"10435","city":"Berlin","website":"www.tete.nu"},"geometry":{"type":"Point","coordinates":[13.4119389,52.5359415]}},{"type":"Feature","properties":{"id":"419","categories":["MUSEUM"],"name":"the temporary Bauhaus-Archiv/ Museum für Gestaltung)","address":"Knesebeckstraße 1-2","plz":"10623","city":"Berlin","website":"https://www.bauhaus.de/de/"},"geometry":{"type":"Point","coordinates":[13.32265,52.51065]}},{"type":"Feature","properties":{"id":"420","categories":["BÜHNEN","THEATER"],"name":"Theater an der Parkaue","address":"Parkaue 29","plz":"10367","city":"Berlin","website":"http://parkaue.de/unterwegs/"},"geometry":{"type":"Point","coordinates":[13.4771513,52.5167789]}},{"type":"Feature","properties":{"id":"421","categories":["BÜHNEN","THEATER"],"name":"Theater auf der Zitadelle","address":"Am Juliusturm 64","plz":"13599","city":"Berlin","website":"https://www.theater-zitadelle.de/"},"geometry":{"type":"Point","coordinates":[13.2122902,52.5403517]}},{"type":"Feature","properties":{"id":"422","categories":["BÜHNEN","THEATER"],"name":"Theater Coupé","address":"Hohenzollerndamm 176","plz":"10713","city":"Berlin","website":"https://www.villa-oppenheim-berlin.de/"},"geometry":{"type":"Point","coordinates":[13.3118077,52.4894393]}},{"type":"Feature","properties":{"id":"423","categories":["BÜHNEN","THEATER"],"name":"Theater Expedition Metropolis","address":"Ohlauer Str. 41","plz":"10999","city":"Berlin","website":"http://www.expedition-metropolis.de/"},"geometry":{"type":"Point","coordinates":[13.4293,52.49418]}},{"type":"Feature","properties":{"id":"424","categories":["BÜHNEN","THEATER"],"name":"Theater im Palais","address":"Am Festungsgraben 1","plz":"10117","city":"Berlin","website":"http://www.theater-im-palais.de/"},"geometry":{"type":"Point","coordinates":[13.3957532,52.5188614]}},{"type":"Feature","properties":{"id":"425","categories":["BÜHNEN","THEATER"],"name":"Theater o.N.","address":"Kollwitzstraße 53","plz":"10405","city":"Berlin","website":"https://www.theater-on.de/"},"geometry":{"type":"Point","coordinates":[13.4160621,52.5349541]}},{"type":"Feature","properties":{"id":"426","categories":["BÜHNEN","THEATER"],"name":"Theater Strahl","address":"Martin-Luther-Straße 77","plz":"10825","city":"Berlin","website":"http://www.theater-strahl.de/"},"geometry":{"type":"Point","coordinates":[13.3457162,52.4881838]}},{"type":"Feature","properties":{"id":"427","categories":["BÜHNEN UND THEATER","DARSTELLENDE KUNST","TANZ / PERFORMANCE"],"name":"Theater Thikwa","address":"Fidicinstraße 3","plz":"10965","city":"Berlin","website":"http://www.thikwa.de/"},"geometry":{"type":"Point","coordinates":[13.388507,52.486954]}},{"type":"Feature","properties":{"id":"428","categories":["BÜHNEN","THEATER"],"name":"Theater Verlängertes Wohnzimmer","address":"Frankfurter Allee 91","plz":"10247","city":"Berlin","website":"http://www.theater-verlaengertes-wohnzimmer.de/"},"geometry":{"type":"Point","coordinates":[13.4717477,52.5142574]}},{"type":"Feature","properties":{"id":"429","categories":["BÜHNEN","THEATER"],"name":"Theater X","address":"Wiclefstraße 32","plz":"10551","city":"Berlin","website":"http://www.grenzen-los.eu/jugendtheaterbuero/"},"geometry":{"type":"Point","coordinates":[13.3294212,52.5313705]}},{"type":"Feature","properties":{"id":"430","categories":["BÜHNEN","THEATER"],"name":"Theaterdiscounter","address":"Klosterstraße 44","plz":"10179","city":"Berlin","website":"https://theaterdiscounter.de/"},"geometry":{"type":"Point","coordinates":[13.4117099,52.5178019]}},{"type":"Feature","properties":{"id":"431","categories":["BÜHNEN","THEATER"],"name":"Theaterforum Kreuzberg","address":"Eisenbahnstraße 21","plz":"10997","city":"Berlin","website":"https://www.tfk-berlin.de/"},"geometry":{"type":"Point","coordinates":[13.4345971,52.5040006]}},{"type":"Feature","properties":{"id":"432","categories":["BÜHNEN","THEATER"],"name":"Theaterhaus Berlin Mitte, Haus C","address":"Wallstraße 32c","plz":"10179","city":"Berlin","website":"https://www.theaterhaus-berlin.com/"},"geometry":{"type":"Point","coordinates":[13.4113669,52.5110497]}},{"type":"Feature","properties":{"id":"433","categories":["BIBLIOTHEK"],"name":"Theodor-Heuss-Bibliothek","address":"Hauptstraße 40","plz":"10827","city":"Berlin","website":"https://www.berlin.de/stadtbibliothek-tempelhof-schoeneberg/bibliotheken/mittelpunktbibliothek-schoeneberg/"},"geometry":{"type":"Point","coordinates":[17.008135,48.136469]}},{"type":"Feature","properties":{"id":"434","categories":["BÜHNEN","THEATER"],"name":"tik - Theater im Kino (nord/süd)","address":"nord: Rigaer Str. 77 / süd: Boxhagener Str. 18","plz":"10247","city":"Berlin","website":"http://www.theater-im-kino.de/"},"geometry":{"type":"Point","coordinates":[13.45532,52.512839]}},{"type":"Feature","properties":{"id":"435","categories":["BÜHNEN","THEATER"],"name":"Tiyatrom - Türkisches Theater Berlin","address":"Alte Jakobstraße 12","plz":"10969","city":"Berlin","website":"http://www.tiyatrom.de/"},"geometry":{"type":"Point","coordinates":[13.3993781,52.503931]}},{"type":"Feature","properties":{"id":"436","categories":["PROJEKTRAUM/PROJEKTINITIATIVE"],"name":"top e. V. – Verein zur Förderung kultureller Praxis","address":"Stockholmerstr. 30","plz":"13359","city":"Berlin","website":"www.top-ev.de"},"geometry":{"type":"Point","coordinates":[13.3833709,52.5604449]}},{"type":"Feature","properties":{"id":"437","categories":["MUSEUM"],"name":"U144","address":"Ackerstraße 18","plz":"10115","city":"Berlin","website":"www.untergrundmuseum.de"},"geometry":{"type":"Point","coordinates":[13.3966893,52.5313424]}},{"type":"Feature","properties":{"id":"438","categories":["TANZSTUDIO/ PERFORMANCE"],"name":"Uferstudios GmbH","address":"Uferstraße 8","plz":"13357","city":"Berlin","website":"http://www.uferstudios.com/"},"geometry":{"type":"Point","coordinates":[13.3743709,52.5518185]}},{"type":"Feature","properties":{"id":"439","categories":["PROJEKTRAUM/PROJEKTINITIATIVE"],"name":"Uhrwerk","address":"Soldiner Straße 103","plz":"13359","city":"Berlin","website":"www.koloniewedding.de/orten.php?ort=Uhrwerk&uberuns"},"geometry":{"type":"Point","coordinates":[13.390408,52.5573676]}},{"type":"Feature","properties":{"id":"440","categories":["PROJEKTRAUM/PROJEKTINITIATIVE"],"name":"UNWETTER","address":"","plz":"","city":"Berlin","website":"www.un-wetter.net"},"geometry":{"type":"Point","coordinates":[0,0]}},{"type":"Feature","properties":{"id":"441","categories":["PROJEKTRAUM/PROJEKTINITIATIVE"],"name":"uqbar","address":"Schwedenstr. 16","plz":"13357","city":"Berlin","website":"www.uqbar-ev.de"},"geometry":{"type":"Point","coordinates":[13.3752283,52.5551018]}},{"type":"Feature","properties":{"id":"442","categories":["TANZSTUDIO/ PERFORMANCE"],"name":"URBANRAUM","address":"Urbanstraße 93","plz":"10967","city":"Berlin","website":"http://urbanraum.com/"},"geometry":{"type":"Point","coordinates":[13.4228777,52.4890192]}},{"type":"Feature","properties":{"id":"443","categories":["BÜHNEN","THEATER"],"name":"Vaganten Bühne Gemeinnützige (SOMMERPAUSE)","address":"Kantstraße 12A","plz":"10623","city":"Berlin","website":"https://www.vaganten.de/startseite/"},"geometry":{"type":"Point","coordinates":[13.32859,52.50598]}},{"type":"Feature","properties":{"id":"444","categories":["BILDENDE KUNST"],"name":"Verein der Berliner Künstlerinnen VdBK 1867 e.V.","address":"Gitschiner Str. 61","plz":"10969","city":"Berlin","website":"http://www.vdbk1867.de/"},"geometry":{"type":"Point","coordinates":[13.40933,52.49869]}},{"type":"Feature","properties":{"id":"445","categories":["PROJEKTRAUM/PROJEKTINITIATIVE"],"name":"Videoart at Midnight, c/o BABYLON","address":"Rosa-Luxemburg-Platz","plz":"10178","city":"Berlin","website":"www.videoart-at-midnight.info"},"geometry":{"type":"Point","coordinates":[13.4113305,52.5266977]}},{"type":"Feature","properties":{"id":"446","categories":["BÜHNEN UND THEATER","LITERATUR","BILDENDE KUNST","DARSTELLENDE KUNST","TANZ / PERFORMANCE"],"name":"Vierte Welt","address":"Lychener Str. 37 (Postadresse Vierte Welt)","plz":"10437","city":"Berlin","website":"http://viertewelt.de"},"geometry":{"type":"Point","coordinates":[13.4171045,52.5435389]}},{"type":"Feature","properties":{"id":"447","categories":["KUNST-/KULTURHÄUSER","KULTURVEREINE"],"name":"Villa Elisabeth","address":"Invalidenstraße 3","plz":"10115","city":"Berlin","website":"https://www.elisabeth.berlin/"},"geometry":{"type":"Point","coordinates":[13.3972411,52.5331269]}},{"type":"Feature","properties":{"id":"448","categories":["BILDENDE KUNST","TANZ / PERFORMANCE"],"name":"Vitrine01","address":"Ubahnhof Birkenstraße","plz":"10551","city":"Berlin","website":"https://www.facebook.com/vitrinenulleins/"},"geometry":{"type":"Point","coordinates":[13.3413506,52.5323055]}},{"type":"Feature","properties":{"id":"449","categories":["BÜHNEN","THEATER"],"name":"Volksbühne","address":"Linienstraße 227","plz":"10178","city":"Berlin","website":"https://www.volksbuehne.berlin/de/"},"geometry":{"type":"Point","coordinates":[13.411792,52.5269137]}},{"type":"Feature","properties":{"id":"450","categories":["BÜHNEN","THEATER"],"name":"WABE, Theater unterm Dach, Galerie Parterre/Kunstsammlung, Jugendtheateretage/Kunstwerkstätten","address":"Danziger Str. 101-105","plz":"10405","city":"Berlin","website":"https://www.theateruntermdach-berlin.de/index.html"},"geometry":{"type":"Point","coordinates":[13.4307639,52.537467]}},{"type":"Feature","properties":{"id":"451","categories":["PROJEKTRAUM/PROJEKTINITIATIVE"],"name":"Walden Kunstausstellungen","address":"Hufelandstraße 35","plz":"10407","city":"Berlin","website":"www.galerie-walden.de"},"geometry":{"type":"Point","coordinates":[13.4347669,52.5309279]}},{"type":"Feature","properties":{"id":"452","categories":["MUSEUM"],"name":"Werkbundarchiv - Museum der Dinge","address":"Oranienstraße 25","plz":"10999","city":"Berlin","website":"https://www.museumderdinge.de/"},"geometry":{"type":"Point","coordinates":[13.4206563,52.5010652]}},{"type":"Feature","properties":{"id":"453","categories":["WERKSTATT"],"name":"WerkStadt e.V.","address":"Emser Straße 124","plz":"12051","city":"Berlin","website":"www.werkstadt-berlin.com"},"geometry":{"type":"Point","coordinates":[13.4360672,52.4690073]}},{"type":"Feature","properties":{"id":"454","categories":["MUSIK","SONSTIGES"],"name":"Werkstatt der Kulturen","address":"Wissmannstraße 32","plz":"12049","city":"Berlin","website":"info@werkstatt-der-kulturen.de"},"geometry":{"type":"Point","coordinates":[13.42283,52.48392]}},{"type":"Feature","properties":{"id":"455","categories":["WERKSTATT"],"name":"Werkstatt künstlerische Lithografie","address":"Defreggerstr. 12","plz":"12435","city":"Berlin","website":"http://www.lithowerkstatt-berlin.de/"},"geometry":{"type":"Point","coordinates":[13.4673226,52.4840505]}},{"type":"Feature","properties":{"id":"456","categories":["PROJEKTRAUM/PROJEKTINITIATIVE"],"name":"WestGermany – Berlin","address":"Skalitzer Str. 133","plz":"10999","city":"Berlin","website":"https://westgermany.wordpress.com/2013/09/22/15/"},"geometry":{"type":"Point","coordinates":[13.419727,52.499294]}},{"type":"Feature","properties":{"id":"457","categories":["BIBLIOTHEK"],"name":"Wilhelm-Liebknecht-/Namik-Kemal-Bibliothek","address":"Adalbertstr. 2","plz":"10999","city":"Berlin","website":"https://www.berlin.de/stadtbibliothek-friedrichshain-kreuzberg/bibliotheken/mittelpunktbibliothek-adalbertstrasse/"},"geometry":{"type":"Point","coordinates":[13.4185264,52.4998507]}},{"type":"Feature","properties":{"id":"458","categories":["BIBLIOTHEK"],"name":"Wolfdietrich-Schnurre-Bibliothek","address":"Bizetstraße 41","plz":"13088","city":"Berlin","website":"https://www.berlin.de/stadtbibliothek-pankow/bibliotheken/wolfdietrich-schnurre-bibliothek/"},"geometry":{"type":"Point","coordinates":[13.4525391,52.547703]}},{"type":"Feature","properties":{"id":"459","categories":["PROJEKTRAUM/PROJEKTINITIATIVE"],"name":"Wolfgang Krause Projekte","address":"Oderberger Str. 4","plz":"10435","city":"Berlin","website":"www.wolfgang-krause-projekte.de"},"geometry":{"type":"Point","coordinates":[13.41094,52.53837]}},{"type":"Feature","properties":{"id":"460","categories":["BÜHNEN UND THEATER","BILDENDE KUNST","DARSTELLENDE KUNST"],"name":"YouKunst Jugendkunstschule Steglitz-Zehlendorf","address":"Am Eichgarten 14","plz":"12167","city":"Berlin","website":"http://youkunst.de/"},"geometry":{"type":"Point","coordinates":[13.33493,52.4462121]}},{"type":"Feature","properties":{"id":"461","categories":["OPERN","KONZERTHÄUSER","CHÖRE"],"name":"Zeitgenössische Oper Berlin","address":"Schwedter Str. 269","plz":"10119","city":"Berlin","website":"https://www.zeitgenoessische-oper.de/kontakt"},"geometry":{"type":"Point","coordinates":[13.4120481,52.5326117]}},{"type":"Feature","properties":{"id":"462","categories":["SONSTIGES"],"name":"Zeitgenössischer Tanz Berlin e.V.","address":"Uferstr. 23","plz":"13357","city":"Berlin","website":"www.ztberlin.de"},"geometry":{"type":"Point","coordinates":[13.3748991,52.5518019]}},{"type":"Feature","properties":{"id":"463","categories":["BIBLIOTHEK"],"name":"Zentral- und Landesbibliothek Berlin","address":"Breite Str. 30-36","plz":"10178","city":"Berlin","website":"https://www.zlb.de"},"geometry":{"type":"Point","coordinates":[13.40446,52.51534]}},{"type":"Feature","properties":{"id":"464","categories":["SONSTIGES"],"name":"Zentrum Bundesrepublik Deutschland des Internationalen Theaterinstituts e.V. / MIME Centrum","address":"Mariannenplatz 2","plz":"10997","city":"Berlin","website":"https://www.iti-germany.de/home/"},"geometry":{"type":"Point","coordinates":[13.4240746,52.5038945]}},{"type":"Feature","properties":{"id":"465","categories":["KUNST-/KULTURHÄUSER","KULTURVEREINE"],"name":"ZENTRUM danziger50","address":"Danziger Str. 50","plz":"10435","city":"Berlin","website":"http://danziger50.com/"},"geometry":{"type":"Point","coordinates":[13.4200047,52.5395692]}},{"type":"Feature","properties":{"id":"466","categories":["KUNSTGALERIEN","AUSSTELLUNGSRÄUME"],"name":"Zentrum für offene Kommunikation","address":"Bänschstr. 20","plz":"10247","city":"Berlin","website":"zok.cultd.net"},"geometry":{"type":"Point","coordinates":[13.4609869,52.5187958]}},{"type":"Feature","properties":{"id":"467","categories":["KUNST-/KULTURHÄUSER","KULTURVEREINE"],"name":"Zitadelle Spandau","address":"Am Juliusturm 64","plz":"13599","city":"Berlin","website":"http://www.zitadelle-berlin.de/"},"geometry":{"type":"Point","coordinates":[13.2122902,52.5403517]}},{"type":"Feature","properties":{"id":"468","categories":["PROJEKTRAUM/PROJEKTINITIATIVE"],"name":"ZK/U","address":"Siemensstrasse 27","plz":"10551","city":"Berlin","website":"www.zku-berlin.org"},"geometry":{"type":"Point","coordinates":[13.336468,52.533799]}},{"type":"Feature","properties":{"id":"469","categories":["SONSTIGES"],"name":"Zona Dynamic","address":"Selchower Strasse, 9","plz":"12049","city":"Berlin","website":"www.zonadynamic.com"},"geometry":{"type":"Point","coordinates":[13.4226189,52.479019]}},{"type":"Feature","properties":{"id":"470","categories":["KUNST-/KULTURHÄUSER","KULTURVEREINE"],"name":"ZUKUNFT am Ostkreuz/ Theater Zukunft","address":"Laskerstr. 5 / Markgrafendamm","plz":"10245","city":"Berlin","website":"https://zukunft-ostkreuz.de/"},"geometry":{"type":"Point","coordinates":[13.4666,52.5013]}},{"type":"Feature","properties":{"id":"471","categories":["PROJEKTRAUM/PROJEKTINITIATIVE"],"name":"zwanzigquadratmeter","address":"Petersburger Straße 73","plz":"10249","city":"Berlin","website":"www.zqmberlin.org"},"geometry":{"type":"Point","coordinates":[13.4528209,52.5196556]}},{"type":"Feature","properties":{"id":"472","categories":["PROJEKTRAUM/PROJEKTINITIATIVE"],"name":"Zwitschermaschine c/o Kulturpark 3000 eV","address":"Potsdamer Str. 161","plz":"10783","city":"Berlin","website":"www.zwitschermaschine-berlin.de/"},"geometry":{"type":"Point","coordinates":[13.3614554,52.4948712]}}]}